,ID,Freeway,Freeway Direction,District,Latitude,Longitude,Type,Lanes,Name,City
0,400000,101,S,4,38.081498,-122.547963,ML,4,SR-37 conn-s-diag,52582.0
1,400001,101,N,4,37.364085,-121.901149,ML,5,NB 880 rm-n-loop,68000.0
2,400002,101,S,4,37.584097,-122.328465,ML,5,Peninsula Ave OC,68252.0
3,400006,880,S,4,37.605003,-122.065542,ML,4,Whipple Rd rm-s-diag,81204.0
4,400007,101,N,4,37.586936,-122.337721,ML,5,2000' N of Pennisula Ave,68252.0
5,400009,80,W,4,37.864883,-122.303345,ML,5,oppo University Ave off-e-diag,6000.0
6,400010,101,N,4,37.629765,-122.402365,ML,4,San Bruno Ave off-n-diag,
7,400011,101,S,4,38.041862,-122.536533,ML,5,2600' N of Miller Creek Rd,52582.0
8,400014,101,N,4,37.245818,-121.775473,ML,5,Bernal rd  rm-n-diag,68000.0
9,400017,85,S,4,37.253303,-121.94544,ML,4,BASCOM AVE,68000.0
10,400025,680,N,4,37.892272,-122.06331,ML,5,NEWELL AVE,83346.0
11,400026,580,E,4,37.809611,-122.246363,ML,4,Lakeshore Ave on-e-diag,53000.0
12,400027,80,E,4,37.914241,-122.317388,ML,4,oppo E of Carlson Blvd,60620.0
13,400028,280,N,4,37.649733,-122.451962,ML,4,Westborough Blvd,73262.0
14,400030,880,S,4,37.359087,-121.906538,ML,4,N First St rm-s-loop,68000.0
15,400031,580,W,4,37.787056,-122.196191,ML,4,EB High St. off ramp,53000.0
16,400037,680,S,4,37.943971,-122.058927,ML,6,Monument Blvd rm-s-diag,57764.0
17,400038,880,S,4,37.622701,-122.078223,ML,5,2200' N of Industrial Pkwy,33000.0
18,400039,101,N,4,37.637025,-122.404035,ML,4,SFIA/San Bruno Ave,
19,400040,87,S,4,37.294949,-121.873109,ML,3,Curtner Ave rm-s-loop,68000.0
20,400041,880,N,4,37.633535,-122.085656,ML,4,TENNYSON RD,33000.0
21,400043,101,S,4,37.753591,-122.403092,ML,4,25th St POC,67000.0
22,400044,680,S,4,38.116791,-122.106303,ML,2,Parish Rd,
23,400045,880,N,4,37.363402,-121.902233,ML,4,SB 101 rm-n-loop,68000.0
24,400048,24,E,4,37.86726,-122.199105,ML,4,Gateway Blvd on-e-diag,54232.0
25,400049,4,E,4,38.014622,-121.994448,ML,4,Willow Pass Rd rm-e-diag,
26,400050,238,N,4,37.688984,-122.114253,ML,3,KENT ST,
27,400052,85,N,4,37.255936,-121.874584,ML,3,Almaden Expwy  rm-n-loop,68000.0
28,400053,680,S,4,37.862138,-122.034099,ML,4,Livorna Rd on-s-diag,
29,400057,880,N,4,37.335022,-121.935522,ML,3,Bascom Ave rm-n-diag,68000.0
30,400059,85,S,4,37.250481,-121.907735,ML,3,Camden Ave rm-s-diag,68000.0
31,400060,80,W,4,37.87181,-122.305549,ML,5,oppo N of University Ave,6000.0
32,400065,87,S,4,37.320292,-121.890281,ML,2,NB & SB 280  rm-s-conn,68000.0
33,400067,880,S,4,37.597694,-122.060285,ML,4,Alvarado-Niles Rd rm-s-diag,81204.0
34,400069,101,S,4,37.385758,-121.977493,ML,4,Great America Pkwy rm-s-diag,69084.0
35,400071,92,W,4,37.567395,-122.26939,ML,3,2700' E of Foster City Blvd.,25338.0
36,400073,17,S,4,37.2563,-121.955559,ML,2,NB 85 rm-s-loop/conn,44112.0
37,400074,80,W,4,38.108738,-122.229761,ML,3,Tennessee St off-w-loop,81666.0
38,400075,580,E,4,37.82576,-122.275143,ML,6,West St off ramp,53000.0
39,400078,680,N,4,37.913722,-122.066597,ML,6,N Main St off-n-loop,83346.0
40,400079,80,W,4,37.904377,-122.313309,ML,4,oppo W of Panama Ave,60620.0
41,400082,80,E,4,37.980187,-122.317007,ML,4,1000' W of Richmond Pkwy,60620.0
42,400083,24,W,4,37.839128,-122.264826,ML,4,SHATTUCK AVE/ 55TH ST,53000.0
43,400084,280,S,4,37.329258,-122.012053,ML,4,Wolfe Rd rm-s-loop,17610.0
44,400085,85,S,4,37.255594,-121.87471,ML,3,ALMADEN EXPWY,68000.0
45,400088,880,N,4,37.414988,-121.912685,ML,4,Great Mall Pkwy rm-n-loop,47766.0
46,400090,680,N,4,37.819445,-121.993177,ML,5,2000' N OF Sycamore Valley Rd,17988.0
47,400091,880,S,4,37.70723,-122.162087,ML,5,200' N of Fairway/Aladdin Dr,68084.0
48,400093,880,S,4,37.811953,-122.303779,ML,4,oppo 1400' N of 7th St,53000.0
49,400094,880,N,4,37.776769,-122.236107,ML,4,23th Ave/Kennedy St rm-s-loop,53000.0
50,400096,237,W,4,37.417981,-121.972547,ML,3,oppo Great America Pkwy,69084.0
51,400097,85,S,4,37.279012,-122.010614,ML,3,Saratoga Ave  rm-n-diag,70280.0
52,400098,101,S,4,37.589264,-122.360143,ML,4,Broadway rm-s-loop/diag,9066.0
53,400100,17,S,4,37.295052,-121.938872,ML,3,Hamilton Ave rm-n-loop,10340.0
54,400101,24,W,4,37.872945,-122.189548,ML,5,1200' W of Orinda exit,54232.0
55,400103,24,E,4,37.839085,-122.26443,ML,4,Shattuck Ave / 55th St,53000.0
56,400104,237,E,4,37.419313,-121.95548,ML,3,NORTH FIRST STREET,68000.0
57,400105,680,S,4,37.77936,-121.976464,ML,4,Crow Canyon Rd on-n-diag,68378.0
58,400106,101,S,4,37.586325,-122.332169,ML,5,oppo peninsula ave rm-n-diag,68252.0
59,400107,101,N,4,37.551402,-122.29412,ML,5,oppo EB 92 rm-s-diag,68252.0
60,400108,17,N,4,37.190197,-121.992771,ML,2,Bear Creek Rd rm-n-diag,
61,400109,101,S,4,37.362706,-121.889426,ML,4,N 13th St/Oakland Rd rm-s-diag,68000.0
62,400110,680,S,4,37.951643,-122.055554,ML,6,GREGORY LN OFF-S-DIAG,57764.0
63,400111,580,E,4,37.70141,-121.888557,ML,5,Hacienda Dr rm-e-loop,57792.0
64,400112,242,N,4,37.998096,-122.038232,ML,4,Olivera St oc (Reitz Ct),16000.0
65,400113,80,W,4,37.932553,-122.326013,ML,4,Barrett Ave rm-w-diag,60620.0
66,400115,238,S,4,37.688688,-122.114306,ML,3,Kent St,
67,400116,101,S,4,37.634035,-122.403213,ML,5,N Access Rd rm-s-fly,
68,400118,680,N,4,37.780195,-121.976672,ML,4,Crow Canyon Rd on-n-diag,68378.0
69,400119,101,N,4,37.608473,-122.389316,ML,4,3300' N of Milbrae ave OC,
70,400122,880,N,4,37.36614,-121.901132,ML,3,NB 101 rm-n-diag,68000.0
71,400124,80,E,4,38.036872,-122.249008,ML,4,oppo 600' W of Refinery Rd UC,
72,400125,101,N,4,37.617768,-122.398679,ML,7,oppo 1200' N of SFIA,
73,400126,80,W,4,37.856366,-122.301014,ML,5,oppo S Aquatic Park,6000.0
74,400128,80,W,4,38.084834,-122.233136,ML,3,oppo Magazine St  on-e-hook,81666.0
75,400132,85,N,4,37.243208,-121.806387,ML,4,Cottle rd rm-n-diag,68000.0
76,400134,880,S,4,37.731787,-122.188781,ML,5,98th Ave rm-s-loop,53000.0
77,400137,880,N,4,37.54653,-122.022581,ML,4,THORNTON AVE,26000.0
78,400138,101,S,4,37.317118,-121.830485,ML,5,Tully Rd rm-s-diag,
79,400141,880,N,4,37.523522,-121.989607,ML,4,Stevenson Blvd rm-n-diag,26000.0
80,400143,101,S,4,38.074388,-122.541483,ML,5,2200' N of Ignasio Blvd,
81,400145,85,N,4,37.251693,-121.838501,ML,3,BLOSSOM HILL RD,68000.0
82,400146,880,S,4,37.680405,-122.123301,ML,6,100' S OF PASEO GRANDE,
83,400147,880,N,4,37.34221,-121.926305,ML,3,The Alameda rm-n-loop,68000.0
84,400148,85,N,4,37.250664,-121.912479,ML,3,Camden Ave rm-n-diag,68000.0
85,400149,85,S,4,37.40848,-122.070905,ML,3,Shoreline Blvd rm-s-diag,49670.0
86,400150,680,N,4,37.874155,-122.044346,ML,4,oppo 3000' S of Rudgear Rd,83346.0
87,400152,680,N,4,37.805463,-121.990262,ML,5,oppo 2100' S Sycamore Valley,17988.0
88,400153,580,E,4,37.700927,-121.826692,ML,7,oppo W of Airway Blvd,41992.0
89,400154,17,N,4,37.226342,-121.975157,ML,2,Saratoga Ave rm-n-loop,44112.0
90,400156,280,N,4,37.727079,-122.445019,ML,5,Havelock St,67000.0
91,400158,237,W,4,37.421059,-121.93678,ML,3,Zanker Rd RM-E-Diag,68000.0
92,400160,101,S,4,37.348392,-121.860589,ML,4,Alum Rock Ave rm-s-diag,68000.0
93,400162,92,W,4,37.552538,-122.307782,ML,2,S Delaware St off-w-diag,68252.0
94,400168,101,N,4,37.391166,-121.995524,ML,4,Lawrence Expwy. rm-n-loop,77000.0
95,400169,680,S,4,37.871257,-122.042369,ML,5,oppo 3300' N of Livorna Rd,83346.0
96,400171,24,E,4,37.891457,-122.152067,ML,4,Acalanes Rd on-e-diag,39122.0
97,400172,101,S,4,37.376264,-121.939712,ML,4,De La Cruz Blvd rm-s-diag,68000.0
98,400174,85,N,4,37.403686,-122.06976,ML,3,oppo Moffett Blvd rm-s-loop,49670.0
99,400176,80,W,4,37.867545,-122.304183,ML,5,University Ave rm-w-loop,6000.0
100,400178,87,N,4,37.276874,-121.863698,ML,2,Capitol Expwy  rm-n-diag,68000.0
101,400180,880,N,4,37.674405,-122.114201,ML,5,oppo 900' S of Hacienda Ave,
102,400181,101,N,4,37.244125,-121.772528,ML,4,Bernal Rd rm-n-loop,68000.0
103,400182,80,E,4,37.925458,-122.320648,ML,6,Cutting Blvd rm-e-diag,60620.0
104,400183,101,N,4,37.689942,-122.390669,ML,4,2400' N of Sierra Point Prkwy,8310.0
105,400184,680,N,4,37.964604,-122.055102,ML,4,WILLOW PASS  ON-N-DIAG,16000.0
106,400185,85,N,4,37.303131,-122.034527,ML,3,De Anza Blvd/Saratoga-Sunny,68000.0
107,400186,880,S,4,37.572471,-122.046218,ML,4,600' N of Paseo Padre Pkwy,26000.0
108,400189,880,N,4,37.493107,-121.948928,ML,4,Fremont Blvd rm-n-loop,26000.0
109,400190,880,S,4,37.771395,-122.223163,ML,4,42nd/High St rm-n-diag,53000.0
110,400192,880,S,4,37.71565,-122.173379,ML,6,oppo davis st off-n-diag,68084.0
111,400193,680,S,4,37.935406,-122.060387,ML,4,oppo 100' N of Oak Park Blvd,57764.0
112,400195,101,N,4,37.321278,-121.834098,ML,4,Tully Rd rm-n-loop,68000.0
113,400197,24,E,4,37.895088,-122.112962,ML,4,600' E of 1st St UC,39122.0
114,400201,237,W,4,37.419186,-121.962831,ML,3,N FIRST STREET,68000.0
115,400202,580,E,4,37.92135,-122.337615,ML,3,Marina Bay Parkway (S 23rd St),60620.0
116,400203,580,E,4,37.822145,-122.259965,ML,4,Kempton St/Fairmont St,53000.0
117,400206,101,S,4,37.381356,-121.96211,ML,4,San Tomas Expwy rm-s-loop,68000.0
118,400207,680,N,4,37.827979,-121.998142,ML,4,1300' S of El Cerro Blvd,17988.0
119,400208,680,S,4,37.918191,-122.06364,ML,5,N. Main St off-s-diag,83346.0
120,400209,85,S,4,37.319961,-122.049031,ML,4,Stevens Creek Blvd  rm-s-diag,17610.0
121,400211,680,N,4,37.8897,-122.058213,ML,5,oppo 1700' N of South Main St.,83346.0
122,400212,680,N,4,37.75546,-121.962333,ML,4,2000' S of Bollinger Canyon Rd,68378.0
123,400213,85,S,4,37.259192,-121.967128,ML,4,Winchester Blvd  rm-n-diag,44112.0
124,400214,101,N,4,38.076333,-122.54237,ML,4,SR-37 conn-n-diag,52582.0
125,400216,580,E,4,37.919642,-122.332292,ML,3,Regatta Blvd,60620.0
126,400218,880,N,4,37.803542,-122.301498,ML,4,2400' S of 7th St,53000.0
127,400221,17,N,4,37.293614,-121.937899,ML,3,Hamilton Ave  rm-n-loop,10340.0
128,400222,85,N,4,37.275395,-122.004702,ML,3,oppo Saratoga Ave rm-s-diag,68000.0
129,400223,101,S,4,37.208513,-121.721905,ML,4,Bailey Ave rm-s-diag,68000.0
130,400224,24,W,4,37.835531,-122.266013,ML,4,47th St and MLK,53000.0
131,400225,880,S,4,37.689656,-122.136588,ML,4,Washington Ave rm-s-loop,68084.0
132,400227,101,N,4,37.377237,-121.943586,ML,5,Trimble Rd rm-n-diag,68000.0
133,400228,880,S,4,37.71769,-122.175415,ML,6,Davis St rm-s-loop/diag,68084.0
134,400231,280,S,4,37.762469,-122.392743,ML,3,18th St / Pennsylvania,67000.0
135,400232,680,N,4,37.468847,-121.907383,ML,3,Scott Creek Rd rm-n-diag,26000.0
136,400235,80,W,4,38.030602,-122.254968,ML,4,oppo California St / Spring,
137,400236,87,S,4,37.325009,-121.892984,ML,3,Auzerais Ave/Delmas St,68000.0
138,400237,101,N,4,37.210372,-121.723483,ML,4,Bailey Ave rm-n-loop,68000.0
139,400238,880,S,4,37.413256,-121.912324,ML,4,Great Mall Pkwy rm-s-diag,47766.0
140,400240,17,N,4,37.258184,-121.953853,ML,3,NB 85 rm-n-conn,44112.0
141,400242,880,S,4,37.812685,-122.3032,ML,4,oppo 2000' N of 7th St/Grand,53000.0
142,400246,101,N,4,37.386551,-121.979462,ML,4,Great America Pkwy rm-n-diag,69084.0
143,400248,880,S,4,37.546915,-122.023163,ML,4,Thornton Ave rm-s-loop,26000.0
144,400249,880,N,4,37.506892,-121.966671,ML,4,Auto Mall Pkwy rm-n-loop,26000.0
145,400251,24,E,4,37.893156,-122.123812,ML,4,Oak Hill Rd off diag,39122.0
146,400252,880,N,4,37.687544,-122.133225,ML,4,Lewelling Blvd rm-n-diag,
147,400253,880,S,4,37.342957,-121.925721,ML,3,The Alameda rm-s-loop,68000.0
148,400255,101,N,4,37.727662,-122.402599,ML,5,BACON ST NEAR SAN BRUNO AVE,67000.0
149,400257,87,S,4,37.291715,-121.871799,ML,3,Curtner Ave rm-n-diag,68000.0
150,400258,87,N,4,37.313462,-121.886197,ML,3,Lelong St rm-n-diag,68000.0
151,400260,101,N,4,37.706585,-122.394455,ML,4,oppo Harney Way  rm-s-diag,8310.0
152,400261,580,E,4,37.805061,-122.234851,ML,4,500' W of Park Blvd,53000.0
153,400263,101,S,4,37.573665,-122.317153,ML,5,BETW POPLAR & 3RD -CYPRESS AVE,68252.0
154,400264,101,S,4,37.413855,-122.082578,ML,4,Old Middlefield Way rm-s-diag,49670.0
155,400265,680,S,4,38.070185,-122.12636,ML,2,Industrial Rd / Park Rd,5290.0
156,400268,85,N,4,37.255651,-121.858078,ML,3,SANTA TERESA,68000.0
157,400270,4,E,4,38.022118,-121.962342,ML,4,Willow Pass Rd (Bay Point),
158,400272,101,S,4,37.546868,-122.290231,ML,4,Hillsdale Blvd off-s-diag,68252.0
159,400274,237,W,4,37.409627,-121.997252,ML,3,oppo Lawrence Expwy,77000.0
160,400275,880,N,4,37.667821,-122.108348,ML,5,A St rm-n-diag,
161,400276,280,N,4,37.62897,-122.432885,ML,3,Sneath Ln rm-n-diag/loop,65028.0
162,400278,17,S,4,37.266561,-121.948692,ML,3,San Tomas Expwy rm-s-diag,44112.0
163,400280,87,N,4,37.260103,-121.858435,ML,3,Santa Teresa Blvd rm-n-diag,68000.0
164,400283,101,N,4,38.053731,-122.530648,ML,4,2000' N of Pacheco Creek OC,
165,400284,880,N,4,37.630267,-122.083308,ML,4,Tennyson Rd off-n-diag,33000.0
166,400287,680,N,4,38.116567,-122.106057,ML,2,Parish Rd,
167,400289,24,W,4,37.896274,-122.107979,ML,5,1450' E of EBmud Aqueduct UC,39122.0
168,400291,101,N,4,37.546976,-122.290032,ML,5,oppo Hillsdale Blvd off-s-diag,68252.0
169,400292,280,S,4,37.316378,-121.972052,ML,4,Saratoga ave  rm-s-diag,68000.0
170,400295,680,N,4,38.070032,-122.126275,ML,2,Industrial Rd / Park Rd,5290.0
171,400296,237,E,4,37.420359,-121.93915,ML,3,oppo Zanker Rd  rm-w-loop,68000.0
172,400297,238,S,4,37.689523,-122.119266,ML,3,Ashland Ave,
173,400298,17,S,4,37.293047,-121.937861,ML,3,Hamilton Ave rm-s-diag,10340.0
174,400300,880,S,4,37.805659,-122.303914,ML,3,7th St rm-s-diag,53000.0
175,400301,80,W,4,37.999311,-122.28411,ML,4,oppo Pinole Valley Rd,57288.0
176,400302,580,E,4,37.800558,-122.227577,ML,4,Beaumont Ave,53000.0
177,400303,680,N,4,37.875017,-122.045018,ML,4,oppo Rudgear Rd on-s-diag,83346.0
178,400304,101,S,4,38.069309,-122.538884,ML,4,N OF IGNACIO BLVD,
179,400307,242,S,4,37.997771,-122.03856,ML,3,Olivera St oc (Reitz Ct),16000.0
180,400308,580,W,4,37.800758,-122.227469,ML,4,Beaumont Ave,53000.0
181,400309,880,N,4,37.495016,-121.951359,ML,4,Fremont Blvd rm-n-diag,26000.0
182,400312,880,S,4,37.677442,-122.118925,ML,6,Hacienda Ave OC,
183,400313,80,W,4,37.993511,-122.301607,ML,4,oppo Appian Way rm-e-diag,57288.0
184,400314,92,E,4,37.552461,-122.303913,ML,2,oppo S Delaware St off-w-diag,68252.0
185,400316,101,N,4,37.639474,-122.405195,ML,4,EB 380/S Airport Blvd,73262.0
186,400318,280,S,4,37.731198,-122.436258,ML,4,SOUTH OF MONTEREY,67000.0
187,400319,280,N,4,37.506335,-122.337198,ML,4,SR 92,
188,400321,880,S,4,37.659179,-122.103312,ML,5,Winton Ave rm-n-coll,33000.0
189,400322,280,N,4,37.734299,-122.409462,ML,5,oppo Alemany Blvd,67000.0
190,400323,24,E,4,37.892701,-122.16068,ML,4,1200' W of Acalanes Rd,54232.0
191,400324,4,E,4,38.018708,-121.941653,ML,4,Bailey Rd. rm-e-diag,
192,400325,101,N,4,37.304612,-121.818006,ML,4,CAPITOL EXPWY,68000.0
193,400329,80,E,4,37.903574,-122.31244,ML,4,Central Ave rm-e-diag,60620.0
194,400330,101,S,4,37.398628,-122.026802,ML,4,Mathilda Ave. rm-s-diag,77000.0
195,400331,101,N,4,37.62072,-122.399676,ML,5,oppo SFIA off-s-diag,
196,400333,880,N,4,37.719584,-122.177086,ML,4,Davis St rm-n-loop/diag,68084.0
197,400334,580,W,4,37.701111,-121.817968,ML,5,Airway Blvd  rm-w-loop,41992.0
198,400335,680,N,4,37.720756,-121.937891,ML,4,3900' S of Alcosta Blvd,20018.0
199,400336,85,N,4,37.250624,-121.928209,ML,4,Union Ave rm-s-diag,68000.0
200,400337,80,W,4,38.075741,-122.231688,ML,3,Sonoma Blvd on-w-diag,81666.0
201,400338,280,N,4,37.671398,-122.466632,ML,4,Serramonte Blvd rm-n-diag,17918.0
202,400339,580,W,4,37.79841,-122.216924,ML,4,Fruitvale Ave off-e-diag,53000.0
203,400340,101,S,4,37.629746,-122.402661,ML,4,San Bruno Ave rm-s-diag,
204,400341,880,N,4,37.771469,-122.22307,ML,4,42nd/High St rm-n-diag,53000.0
205,400343,880,N,4,37.348907,-121.917833,ML,3,Coleman Ave rm-n-diag,68000.0
206,400345,24,E,4,37.882713,-122.1802,ML,5,Davis St on-e-diag,54232.0
207,400349,101,N,4,38.057912,-122.530824,ML,4,S of Los Robles Rd,
208,400350,280,S,4,37.506759,-122.33852,ML,4,SR 92,
209,400353,101,N,4,37.383125,-121.967496,ML,4,San Tomas Expwy rm-n-diag,68000.0
210,400354,24,W,4,37.892849,-122.166614,ML,5,1900' E of St Stephens Dr OC,54232.0
211,400359,580,E,4,37.922431,-122.357855,ML,3,Harbour Way on ramp,60620.0
212,400360,880,N,4,37.730698,-122.187572,ML,4,98th Ave rm-n-loop,53000.0
213,400361,80,W,4,37.937368,-122.326196,ML,4,oppo San Pablo Ave rm-e-diag,60620.0
214,400363,880,S,4,37.505941,-121.965865,ML,4,Auto Mall Pkwy rm-s-diag,26000.0
215,400369,680,N,4,38.088513,-122.109515,ML,2,Lake Herman Rd,
216,400372,101,S,4,37.38482,-121.974251,ML,4,Great America Pkwy rm-s-loop,69084.0
217,400376,680,N,4,37.496302,-121.923874,ML,4,Mission Blvd rm-n-coll,26000.0
218,400378,80,W,4,37.925318,-122.320965,ML,5,Cutting Blvd off-w-diag,60620.0
219,400381,101,N,4,37.593148,-122.365697,ML,4,Broadway rm-n-diag/hook,9066.0
220,400382,101,S,4,38.037635,-122.536716,ML,4,oppo N of Miller Creek Rd,
221,400383,880,S,4,37.670804,-122.110602,ML,6,1900' N OF A ST,
222,400388,101,N,4,37.480426,-122.174688,ML,5,N of Union Pacific RROC,46870.0
223,400389,24,E,4,37.887084,-122.177406,ML,5,1650' W of St Stephens Dr OC,54232.0
224,400390,101,N,4,38.081688,-122.547804,ML,4,N of 37 / 101 Interchange,52582.0
225,400392,101,S,4,38.063597,-122.535214,ML,4,N of Posada Del sol,
226,400393,680,S,4,37.837989,-122.014484,ML,4,1500' N of El Pintado Rd,17988.0
227,400394,101,S,4,37.364382,-121.902692,ML,5,SB 880 rm-s-loop,68000.0
228,400395,580,E,4,37.914244,-122.325871,ML,3,Bayview Ave on-e-loop,60620.0
229,400397,280,S,4,37.726891,-122.445512,ML,5,HAVELOCK ST,67000.0
230,400400,101,N,4,37.34241,-121.854543,ML,4,SB 680  rm-n-diag,68000.0
231,400401,680,S,4,37.827922,-121.99838,ML,4,1300' S OF EL CERRO BLVD,17988.0
232,400406,24,W,4,37.83111,-122.266925,ML,4,42nd St and Martin Luther King,53000.0
233,400407,580,W,4,37.914274,-122.325581,ML,3,oppo Bayview Ave on-e-loop,60620.0
234,400409,880,S,4,37.490584,-121.945998,ML,4,Fremont Blvd rm-s-diag,26000.0
235,400410,85,N,4,37.240325,-121.782062,ML,3,Great Oaks Blvd/Monterey Hwy,68000.0
236,400411,80,W,4,37.980256,-122.317154,ML,4,1000' W of Richmond Pkwy,60620.0
237,400413,24,W,4,37.881791,-122.181562,ML,4,E of Camino Pablo,54232.0
238,400414,280,N,4,37.317942,-121.977301,ML,4,Saratoga Ave rm-n-diag,68000.0
239,400416,17,S,4,37.227752,-121.974276,ML,2,oppo Saratoga Ave on-n-diag,44112.0
240,400417,880,N,4,37.500569,-121.958606,ML,4,oppo at the truck scales,26000.0
241,400418,87,N,4,37.291828,-121.871836,ML,3,Curtner Ave rm-n-diag,68000.0
242,400420,101,N,4,37.587312,-122.35175,ML,5,Anza Blvd rm-n-diag,68252.0
243,400421,101,S,4,37.593761,-122.367078,ML,5,oppo 1500' N of Broadway,9066.0
244,400422,880,N,4,37.715784,-122.173158,ML,4,Davis St off-n-diag,68084.0
245,400425,101,S,4,37.459416,-122.139286,ML,4,University Ave rm-s-diag,20970.0
246,400427,880,S,4,37.64476,-122.093918,ML,4,Jackson St rm-s-fly,33000.0
247,400428,101,N,4,38.041791,-122.536263,ML,5,2600' N of Miller Creek Rd,
248,400429,280,S,4,37.319424,-121.993175,ML,4,LAWRENCE EXPWY,68000.0
249,400430,80,E,4,37.991671,-122.308362,ML,5,oppo 1000' W of Appian Way,57288.0
250,400432,80,E,4,37.864887,-122.30302,ML,5,University Ave off-e-diag,6000.0
251,400435,101,S,4,37.403153,-122.047463,ML,4,Ellis St rm-s-diag,77000.0
252,400436,17,N,4,37.271687,-121.947037,ML,4,Camden Ave rm-n-diag,10340.0
253,400437,680,S,4,37.813185,-121.993418,ML,4,Sycamore Valley Rd,17988.0
254,400438,24,E,4,37.87761,-122.184005,ML,4,Camino Pablo off-e-diag,54232.0
255,400439,101,S,4,37.595859,-122.370348,ML,5,S of Hinkley Rd,9066.0
256,400440,101,S,4,37.353727,-121.865827,ML,4,Mckee Rd/Julian St rm-s-diag,68000.0
257,400441,101,N,4,37.595999,-122.37006,ML,5,S of Hinkley Rd,9066.0
258,400442,880,S,4,37.730017,-122.18722,ML,5,98th Ave rm-s-diag,53000.0
259,400443,80,E,4,37.937479,-122.325945,ML,4,San Pablo Ave rm-e-diag,60620.0
260,400444,85,N,4,37.25025,-121.835557,ML,3,BLOSSOM HILL,68000.0
261,400445,80,E,4,37.932712,-122.325878,ML,4,oppo Barrett Ave rm-w-diag,60620.0
262,400446,680,S,4,37.77437,-121.973981,ML,4,Crow Canyon Rd rm-s-diag,68378.0
263,400449,237,W,4,37.419452,-121.955498,ML,3,N First St,68000.0
264,400450,680,N,4,37.838067,-122.014224,ML,4,1500' N OF EL PINTADO RD,17988.0
265,400451,880,S,4,37.561479,-122.036403,ML,4,Decoto Rd rm-s-diag,26000.0
266,400454,880,S,4,37.803327,-122.301708,ML,4,oppo 2400' S of 7th St,53000.0
267,400457,87,S,4,37.276763,-121.863661,ML,2,Capitol Expwy  rm-n-diag,68000.0
268,400460,101,S,4,38.05375,-122.530892,ML,4,2000' N of Pacheco Creek OC,
269,400461,85,N,4,37.254781,-121.878917,ML,3,ALMADEN EXPWY  RM-N-DIA,68000.0
270,400462,680,S,4,38.182315,-122.134276,ML,2,Gold Hill Rd oc,
271,400463,880,S,4,37.661372,-122.104698,ML,5,2000' N OF WINTON AVE,33000.0
272,400464,85,N,4,37.258029,-121.962211,ML,3,SB 17 / NB 17 rm-n-coll,44112.0
273,400465,80,W,4,37.989153,-122.3126,ML,4,oppo Richmond Pkwy rm-e-diag,57288.0
274,400468,880,S,4,37.520726,-121.984478,ML,4,Stevenson Blvd rm-s-diag,26000.0
275,400470,80,W,4,37.914219,-122.317555,ML,4,E of Carlson Blvd,60620.0
276,400473,101,N,4,37.634102,-122.402969,ML,4,N Access Rd off-n-diag,
277,400474,101,N,4,37.256032,-121.794206,ML,4,Blossom Hill Rd  rm-n-loop,68000.0
278,400478,80,E,4,38.016698,-122.267706,ML,4,SR4 rm-e-fly/diag,33308.0
279,400479,880,S,4,37.362439,-121.903211,ML,4,SB 101 rm-s-diag,68000.0
280,400480,580,W,4,37.824968,-122.270895,ML,4,West St / 35th St,53000.0
281,400484,101,S,4,37.617632,-122.398979,ML,6,1200' N of SFIA,
282,400485,85,N,4,37.254231,-121.949216,ML,3,SB 17/NB 17 rm-s-diag,68000.0
283,400486,880,S,4,37.683114,-122.127218,ML,6,Hesperian Blvd rm-s-diag,
284,400488,880,N,4,37.608066,-122.067407,ML,5,Whipple Rd  rm-n-coll,33000.0
285,400489,580,E,4,37.824791,-122.270978,ML,2,West St / 35th St,53000.0
286,400490,880,N,4,37.531271,-122.004734,ML,4,Mowry Ave rm-n-diag,26000.0
287,400492,580,E,4,37.780572,-122.173006,ML,4,Seminary Ave,53000.0
288,400494,24,E,4,37.895807,-122.108492,ML,5,1400' E of EBmud Aqueduct UC,39122.0
289,400495,880,N,4,37.740229,-122.195912,ML,4,Hegenberger Rd rm-n-loop,53000.0
290,400497,101,N,4,37.672002,-122.390835,ML,4,Sierra Pt Prkwy off-n-diag,73262.0
291,400498,880,S,4,37.764896,-122.217766,ML,4,High St rm-s-diag,53000.0
292,400499,280,N,4,37.331068,-122.014931,ML,4,WOLFE RD,17610.0
293,400501,80,W,4,38.036851,-122.249232,ML,4,600' W of Refinery Rd UC,
294,400503,101,N,4,37.646963,-122.406317,ML,5,S. Airport Blvd rm-n-hook,73262.0
295,400504,92,W,4,37.531103,-122.330303,ML,2,oppo W Hillsdale Blvd,68252.0
296,400505,680,N,4,37.935645,-122.060104,ML,6,100' N of Oak Park Blvd,57764.0
297,400507,85,N,4,37.298931,-122.029806,ML,3,oppo De Anza Blvd rm-s-diag,68000.0
298,400508,880,S,4,37.34766,-121.919969,ML,3,Coleman Ave rm-s-diag,68000.0
299,400513,101,S,4,38.076213,-122.542571,ML,4,SR-37 rm-s-fly/diag,
300,400514,880,S,4,37.334602,-121.936288,ML,3,Bascom Ave rm-s-loop,68000.0
301,400515,880,N,4,37.683298,-122.126995,ML,6,oppo Hesperian Blvd off-n-diag,
302,400516,4,W,4,38.009807,-122.023367,ML,2,SB 242 conn,16000.0
303,400519,85,S,4,37.255257,-121.85256,ML,3,SANTA TERESA,68000.0
304,400521,242,N,4,37.987589,-122.040509,ML,3,Solano Way rm-s-diag,16000.0
305,400525,101,S,4,38.043798,-122.535322,ML,5,2000' S of Pacheco Creek OC,
306,400527,101,N,4,37.586468,-122.331956,ML,4,peninsula ave rm-n-diag,68252.0
307,400528,85,S,4,37.388893,-122.068829,ML,3,EAST EVELYN AVE,49670.0
308,400529,880,N,4,37.677613,-122.118725,ML,5,oppo Hacienda Ave OC,
309,400531,101,S,4,37.551321,-122.294329,ML,6,EB 92 rm-s-diag,68252.0
310,400532,24,E,4,37.890463,-122.137515,ML,4,Risa rd,39122.0
311,400534,880,N,4,37.581087,-122.048943,ML,4,ALVARADO-FREMONT BLVD,26000.0
312,400535,680,S,4,37.349493,-121.839218,ML,5,Jackson Ave rm-s-diag,68000.0
313,400536,880,N,4,37.600243,-122.061912,ML,5,Alvarado-Niles Rd rm-n-diag,81204.0
314,400538,80,W,4,37.987092,-122.31465,ML,4,Richmond Pkwy rm-w-loop,57288.0
315,400539,880,N,4,37.572566,-122.045996,ML,5,PASEO PADRE PKWY,26000.0
316,400540,101,N,4,37.65101,-122.406709,ML,5,S Airport Blvd off-s-diag,73262.0
317,400545,101,S,4,37.40013,-122.033628,ML,4,EB 237 rm-s-diag,77000.0
318,400546,680,N,4,37.724687,-121.941,ML,5,2200' S OF ALCOSTA BLVD,20018.0
319,400547,101,S,4,37.942551,-122.515478,ML,4,N of Greenbrae POC,16462.0
320,400549,580,W,4,37.78073,-122.172868,ML,4,Seminary Ave,53000.0
321,400550,24,W,4,37.89455,-122.118824,ML,4,Laurel Dr on-w-diag,39122.0
322,400551,680,N,4,38.182144,-122.133796,ML,2,Gold Hill Rd oc,
323,400552,280,S,4,37.731863,-122.421517,ML,4,oppo S of St. Mary's POC,67000.0
324,400553,680,S,4,37.755435,-121.962571,ML,4,2000' S OF BOLLINGER CANYON RD,68378.0
325,400554,680,N,4,37.822475,-121.993421,ML,4,DIABLO RD  ON-S-DIAG,17988.0
326,400560,280,N,4,37.324839,-122.002891,ML,4,Stevens Creek Blvd  rm-n-diag,69084.0
327,400563,87,N,4,37.325124,-121.893062,ML,3,Auzerais Ave/Delmas St,68000.0
328,400565,880,S,4,37.577648,-122.04799,ML,4,Alvarado-Fremont Blvd,26000.0
329,400566,680,S,4,37.496212,-121.924229,ML,4,Mission Blvd on-s-loop,26000.0
330,400567,237,E,4,37.418931,-121.962821,ML,4,N First St,68000.0
331,400568,101,S,4,37.608375,-122.389578,ML,6,3300' N of Milbrae ave OC,
332,400570,880,S,4,37.776614,-122.236242,ML,4,23th Ave/Kennedy St rm-s-loop,53000.0
333,400573,280,N,4,37.770861,-122.397356,ML,3,18 TH ST / PENNSYLVANIA,67000.0
334,400574,880,N,4,37.711717,-122.168258,ML,4,Marina Blvd rm-n-diag,68084.0
335,400575,280,N,4,37.731898,-122.417132,ML,4,S of St. Mary's POC,67000.0
336,400576,880,S,4,37.528764,-122.000496,ML,4,Mowry Ave rm-s-diag,26000.0
337,400577,85,S,4,37.249661,-121.835108,ML,4,BLOSSOM HILL RD,68000.0
338,400578,101,S,4,37.469095,-122.155726,ML,4,Willow Rd rm-s-loop,20970.0
339,400579,24,E,4,37.890953,-122.148661,ML,4,500' W of El Nido Ranch Rd,39122.0
340,400580,24,W,4,37.89816,-122.087509,ML,5,700' W of El Curtola,39122.0
341,400581,237,W,4,37.402668,-122.029069,ML,2,Mathilda Ave rm-w-diag,77000.0
342,400582,85,S,4,37.275212,-122.004898,ML,3,Saratoga Ave rm-s-diag,68000.0
343,400586,101,S,4,37.376835,-121.942537,ML,4,Trimble Rd. rm-s-loop,68000.0
344,400591,101,N,4,37.304727,-121.818118,ML,5,Capital Expwy rm-n-diag,68000.0
345,400593,101,N,4,37.622827,-122.400394,ML,7,3200' S of San Bruno ave OC,
346,400596,242,S,4,37.987627,-122.040728,ML,4,Solano Way  rm-s-diag,16000.0
347,400598,101,N,4,38.04987,-122.531433,ML,4,N OF PACHECO CREEK OC,52582.0
348,400600,24,W,4,37.891528,-122.149959,ML,5,600' E of El Nido Ranch Rd,39122.0
349,400601,948,N,4,37.821923,-122.298544,ML,3,E of Maritime,53000.0
350,400602,680,S,4,37.484104,-121.914359,ML,4,125' N OF DWR UC,26000.0
351,400604,24,W,4,37.89803,-122.09204,ML,4,Pleasant Hill Rd off-w-coll,39122.0
352,400606,580,W,4,37.822295,-122.25977,ML,4,Kempton St/Fairmont St,53000.0
353,400607,880,N,4,37.77487,-122.232742,ML,4,oppo 29th Ave rm-s-diag,53000.0
354,400608,880,N,4,37.741804,-122.197315,ML,5,Hegenberger Rd rm-n-diag,53000.0
355,400609,880,S,4,37.796547,-122.270242,ML,5,Broadway  rm-s-diag,53000.0
356,400611,880,N,4,37.619533,-122.075651,ML,4,Industrial Pkwy rm-n-diag,33000.0
357,400612,80,E,4,37.871861,-122.305215,ML,5,N of University Ave,6000.0
358,400615,4,E,4,38.010295,-122.017437,ML,4,Port Chicago Hwy rm-e-coll,16000.0
359,400616,24,W,4,37.891578,-122.142555,ML,4,2000' E of El Nido Ranch Rd,39122.0
360,400617,24,W,4,37.878808,-122.185235,ML,4,Camino Pablo on-w-coll/diag,54232.0
361,400619,24,W,4,37.891509,-122.132425,ML,4,1000' W of Dolores Drive UC,39122.0
362,400620,101,S,4,38.065599,-122.536996,ML,4,Ignacio Blvd on-s-diag,
363,400621,101,S,4,37.58677,-122.337944,ML,5,2000' N of Pennisula Ave,68252.0
364,400622,80,E,4,38.084435,-122.233021,ML,3,Magazine St  on-e-hook,81666.0
365,400625,580,E,4,37.701329,-121.871949,ML,5,Santa Rita Rd rm-e-loop,57792.0
366,400628,80,W,4,37.903475,-122.312712,ML,4,oppo Central Ave rm-e-diag,60620.0
367,400630,101,N,4,38.043717,-122.535012,ML,5,2000' S of Pacheco Creek OC,
368,400634,880,S,4,37.633433,-122.085877,ML,4,TENNYSON RD,33000.0
369,400636,680,N,4,37.862189,-122.033884,ML,4,oppo Livorna Rd on-s-diag,
370,400637,85,S,4,37.255332,-121.856478,ML,3,Santa Teresa rm-s-diag,68000.0
371,400639,580,E,4,37.927097,-122.37423,ML,3,Canal Blvd on-e-diag,60620.0
372,400641,101,S,4,37.706492,-122.394734,ML,4,Harney Way rm-s-diag,8310.0
373,400642,980,E,4,37.821318,-122.268956,ML,3,27TH ST  ON-E-DIAG,53000.0
374,400643,101,S,4,37.390763,-121.994912,ML,4,Lawrence Expwy. rm-s-loop,77000.0
375,400645,101,N,4,37.552458,-122.295073,ML,4,oppo Fashion Island Blvd,68252.0
376,400646,238,N,4,37.689634,-122.119252,ML,3,ASHLAND AVE,
377,400648,85,S,4,37.303016,-122.034801,ML,3,De Anza Blvd/Saratoga-Sunny,68000.0
378,400649,17,N,4,37.251741,-121.958118,ML,2,LARK AVE,44112.0
379,400654,87,N,4,37.297486,-121.874117,ML,3,Curtner Ave  rm-n-diag,68000.0
380,400655,24,E,4,37.829582,-122.266637,ML,4,42nd and Dover / 51st Street,53000.0
381,400656,101,N,4,38.037559,-122.536356,ML,4,N of Miller Creek Rd,
382,400657,101,S,4,37.611521,-122.394365,ML,6,SFIA on-s-fly (lower roadway),
383,400659,880,S,4,37.822953,-122.292056,ML,2,oppo W Grand Ave rm-n-diag,53000.0
384,400660,80,E,4,37.99801,-122.285108,ML,4,Pinole Valley Rd rm-e-diag,57288.0
385,400661,101,N,4,37.545931,-122.289058,ML,4,E Hillsdale Blvd rm-n-diag,68252.0
386,400662,880,N,4,37.522071,-121.986671,ML,4,Stevenson Blvd rm-n-loop,26000.0
387,400664,87,N,4,37.303458,-121.878143,ML,3,Almaden Expwy  rm-n-diag,68000.0
388,400665,680,S,4,37.341439,-121.849299,ML,4,King Rd rm-s-diag,68000.0
389,400666,880,S,4,37.67425,-122.114421,ML,6,900' S of Hacienda Ave,
390,400668,101,N,4,37.35512,-121.866967,ML,4,Mckee Rd/Julian St  rm-n-diag,68000.0
391,400669,880,S,4,37.774755,-122.232821,ML,4,29th Ave rm-s-diag,53000.0
392,400670,880,S,4,37.664733,-122.106795,ML,5,A St rm-s-diag,
393,400673,280,S,4,37.329972,-122.013423,ML,4,Wolfe Rd rm-s-loop,17610.0
394,400674,880,N,4,37.565692,-122.040628,ML,4,Decoto Rd rm-n-diag,26000.0
395,400675,580,W,4,37.921473,-122.336918,ML,3,Marina Bay Parkway (S 23rd St),60620.0
396,400676,280,N,4,37.731577,-122.43422,ML,4,S of Monterey Blvd,67000.0
397,400677,85,N,4,37.32001,-122.048757,ML,4,Stevens Creek Blvd  rm-s-diag,17610.0
398,400678,880,N,4,37.764978,-122.217592,ML,4,oppo High St rm-s-diag,53000.0
399,400679,80,E,4,37.853676,-122.300011,ML,5,S Aquatic Park,6000.0
400,400681,880,S,4,37.629653,-122.083176,ML,4,Tennyson Rd rm-s-coll,33000.0
401,400682,880,N,4,37.779555,-122.237925,ML,4,23rd Ave rm-n-fly/diag,53000.0
402,400683,92,E,4,37.56726,-122.269207,ML,3,2700' E of Foster City Blvd.,25338.0
403,400685,880,N,4,37.654859,-122.100333,ML,5,oppo Winton Ave on-s-coll/diag,33000.0
404,400686,880,S,4,37.563681,-122.038765,ML,4,Decoto Rd rm-s-loop,26000.0
405,400687,237,W,4,37.408833,-122.000989,ML,3,Lawrence Expwy rm-w-diag,77000.0
406,400688,85,N,4,37.259412,-121.966974,ML,4,Winchester Blvd  rm-n-diag,44112.0
407,400690,85,S,4,37.255184,-121.876817,ML,3,ALMADEN EXPWY,68000.0
408,400691,80,W,4,37.850502,-122.299413,ML,5,oppo Ashby Ave on-e-diag,6000.0
409,400692,580,E,4,37.786914,-122.196329,ML,4,EB High St. off ramp,53000.0
410,400695,680,S,4,37.468731,-121.907735,ML,4,oppo Scott Creek Rd rm-n-diag,26000.0
411,400696,680,S,4,37.751571,-121.96005,ML,4,2500' S OF BOLLINGER CANYON RD,68378.0
412,400698,880,S,4,37.500427,-121.958791,ML,4,AT THE TRUCK SCALES,26000.0
413,400700,85,S,4,37.251345,-121.934089,ML,3,Union Ave  rm-n-diag,
414,400703,280,N,4,37.662585,-122.465286,ML,4,Hickey Blvd. rm-n-loop,17918.0
415,400707,80,W,4,38.016716,-122.267896,ML,4,oppo SR4 rm-e-fly/diag,33308.0
416,400709,880,S,4,37.341275,-121.927699,ML,4,The Alameda rm-s-diag,68000.0
417,400712,680,N,4,37.835529,-122.009979,ML,4,EL PINTADO WY  ON-N-DIAG,17988.0
418,400713,85,N,4,37.251585,-121.934046,ML,3,Union Ave  rm-n-diag,
419,400714,280,N,4,37.316788,-121.953512,ML,4,Winchester Blvd rm-n-diag,68000.0
420,400715,17,N,4,37.256205,-121.955355,ML,2,SB 85 rm-n-conn,44112.0
421,400716,880,N,4,37.54901,-122.02445,ML,4,Thornton Ave rm-n-diag,26000.0
422,400717,85,S,4,37.250424,-121.912467,ML,4,Camden Ave rm-n-diag,68000.0
423,400720,101,N,4,37.575964,-122.319373,ML,5,Dore Ave off-n-diag,68252.0
424,400723,880,S,4,37.334296,-121.936706,ML,4,Bascom Ave rm-s-diag,68000.0
425,400726,280,N,4,37.341729,-122.091188,ML,4,200' N of St. Joseph Ave,
426,400727,101,S,4,38.057889,-122.531097,ML,4,S of Los Robles Rd,52582.0
427,400728,80,E,4,37.866567,-122.303586,ML,5,University Ave on-e-diag,6000.0
428,400729,85,N,4,37.241625,-121.7675,ML,1,Bernal Rd rm-n-loop,68000.0
429,400730,101,S,4,37.575865,-122.319539,ML,5,oppo Dore Ave off-n-diag,68252.0
430,400733,101,S,4,37.462878,-122.145152,ML,4,University Ave  rm-n-coll/diag,20970.0
431,400734,580,W,4,37.926527,-122.365224,ML,3,END OF CUTTING BLVD OFF RAMP,60620.0
432,400736,24,E,4,37.872735,-122.18927,ML,4,1200' W of Orinda exit,54232.0
433,400738,580,W,4,37.927273,-122.37421,ML,3,200' E of Canal Blvd,60620.0
434,400739,880,S,4,37.507992,-121.968393,ML,4,Auto Mall Pkwy rm-s-loop,26000.0
435,400740,880,S,4,37.738713,-122.194862,ML,5,Hegenberger Rd rm-s-diag,53000.0
436,400741,680,S,4,37.805445,-121.990488,ML,5,2100' S Sycamore Valley Rd,17988.0
437,400742,101,S,4,37.256359,-121.795246,ML,4,Blossom Hill Rd rm-s-diag,68000.0
438,400743,101,S,4,37.398989,-122.028373,ML,4,Mathilda Ave rm-s-loop,77000.0
439,400744,101,S,4,37.689976,-122.390983,ML,4,2400' N of Sierra Point Prkwy,8310.0
440,400746,280,S,4,37.721564,-122.448231,ML,5,Geneva Ave on-s-diag,67000.0
441,400747,24,W,4,37.891089,-122.172893,ML,5,1450' W of St. Stephens Dr OC,54232.0
442,400748,24,E,4,37.89729,-122.081421,ML,6,Juanita Dr,
443,400749,680,S,4,37.874152,-122.044475,ML,5,3000' S of Rudgear Rd,83346.0
444,400750,85,N,4,37.250746,-121.907763,ML,3,oppo Camden Ave rm-s-diag,68000.0
445,400753,101,N,4,37.573775,-122.316986,ML,5,Bet Poplar & 3rd Ave - Cypress,68252.0
446,400754,85,S,4,37.25151,-121.838854,ML,3,BLOSSOM HILL RD,68000.0
447,400755,80,W,4,37.909536,-122.316706,ML,4,Carlson Blvd,60620.0
448,400756,680,S,4,38.024938,-122.11109,ML,3,Marina Vista Ave rm-s-diag,
449,400760,101,N,4,37.374628,-121.931055,ML,4,NB 87 rm-n-diag,68000.0
450,400761,880,N,4,37.529397,-122.001271,ML,4,Mowry Ave rm-n-loop,26000.0
451,400763,101,S,4,37.636976,-122.40429,ML,4,SFIA/San Bruno Ave,73262.0
452,400764,4,E,4,38.022988,-121.966809,ML,4,Willow Pass Rd (Bay Point,
453,400765,880,N,4,37.811809,-122.303409,ML,4,1400' N of 7th St,53000.0
454,400766,101,S,4,37.647089,-122.406584,ML,4,oppo S. Airport Blvd rm-n-hook,73262.0
455,400767,680,S,4,37.819421,-121.993374,ML,5,2000' N OF SYCAMORE VALLEY RD,17988.0
456,400768,101,N,4,38.074507,-122.541273,ML,5,2200' N of Ignasio Blvd,52582.0
457,400770,80,E,4,37.955597,-122.329563,ML,4,San Pablo Dam Rd rm-e-diag,60620.0
458,400772,85,S,4,37.250448,-121.928226,ML,3,Union Ave rm-s-diag,68000.0
459,400774,680,S,4,37.885471,-122.055264,ML,6,S Main St off-s-loop,83346.0
460,400778,880,S,4,37.522837,-121.988605,ML,4,Stevenson Blvd rm-s-loop,26000.0
461,400781,101,S,4,37.671403,-122.391502,ML,4,oppo Sierra Pt Prkwy,73262.0
462,400782,101,S,4,38.04924,-122.531986,ML,4,N OF PACHECO CREEK OC,
463,400783,101,S,4,37.480254,-122.174886,ML,5,oppo N of Union Pacific RROC,46870.0
464,400784,101,S,4,37.622678,-122.400677,ML,6,3200' S of San Bruno ave OC,
465,400785,680,N,4,37.871289,-122.042178,ML,4,3300' N of Livorna Rd,
466,400787,101,S,4,37.587118,-122.351625,ML,6,Anza Blvd rm-n-diag,68252.0
467,400788,880,N,4,37.691415,-122.138842,ML,4,NB 238/Washington Ave,68084.0
468,400790,101,N,4,37.391922,-121.998077,ML,5,Lawrence Expwy rm-n-diag,77000.0
469,400791,680,S,4,37.460727,-121.901158,ML,5,SB Dixon Rd,47766.0
470,400792,85,S,4,37.255491,-121.955543,ML,3,Bascom Ave rm-n-diag,68000.0
471,400793,880,S,4,37.740971,-122.19684,ML,4,Hegenberger Rd rm-s-loop,53000.0
472,400794,101,S,4,37.390422,-121.993716,ML,5,Lawrence Expwy rm-s-diag,77000.0
473,400797,101,N,4,37.589378,-122.359934,ML,4,oppo Broadway rm-s-loop/diag,9066.0
474,400799,280,N,4,37.327927,-121.876137,ML,4,10TH ST,68000.0
475,400800,24,W,4,37.892206,-122.154409,ML,5,100' E of Acalanes Rd UC,39122.0
476,400801,680,N,4,37.897448,-122.070857,ML,4,Mt Diablo,83346.0
477,400804,101,N,4,37.336089,-121.848437,ML,4,Story Rd/SB 280 rm-n-coll,68000.0
478,400805,680,N,4,38.204729,-122.137909,ML,2,S of Cordelia Rd/Bridgeport Av,23182.0
479,400807,280,S,4,37.341455,-122.091236,ML,4,200' N OF ST JOSEPH AVE,
480,400810,880,S,4,37.544559,-122.021402,ML,4,Thornton Ave rm-s-diag,26000.0
481,400814,680,N,4,37.917697,-122.063663,ML,5,N. Main St. rm-n-diag,83346.0
482,400815,580,W,4,37.825941,-122.275114,ML,6,West St off ramp,53000.0
483,400816,580,W,4,37.701684,-121.885255,ML,5,Hacienda Dr rm-w-loop,57792.0
484,400817,101,N,4,37.587146,-122.34519,ML,5,S of Anza Blvd,68252.0
485,400818,680,S,4,37.724817,-121.941397,ML,5,2200' S of Alcosta Blvd,20018.0
486,400819,80,W,4,37.918568,-122.317539,ML,4,Potrero Ave rm-w-diag,60620.0
487,400822,85,N,4,37.255715,-121.955375,ML,3,Bascom Ave rm-n-diag,68000.0
488,400823,280,S,4,37.334249,-122.030111,ML,4,De Anza Blvd rm-s-diag,17610.0
489,400828,85,S,4,37.298804,-122.030071,ML,3,De Anza Blvd rm-s-diag,68000.0
490,400829,80,E,4,38.075421,-122.231255,ML,3,oppo Sonoma Blvd on-w-diag,81666.0
491,400832,17,S,4,37.254601,-121.956775,ML,3,SB 85 rm-s-diag,44112.0
492,400835,880,S,4,37.794062,-122.264744,ML,4,Oak St rm-s-diag,53000.0
493,400837,87,S,4,37.303359,-121.878066,ML,3,Almaden Expwy  rm-n-diag,68000.0
494,400838,80,E,4,37.988948,-122.312525,ML,5,Richmond Pkwy rm-e-diag,57288.0
495,400839,880,S,4,37.580027,-122.048801,ML,4,Alvarado-Fremont Blvd,26000.0
496,400842,87,S,4,37.260412,-121.859365,ML,2,oppo Santa Teresa Blvd,68000.0
497,400844,880,N,4,37.822794,-122.291843,ML,2,W Grand Ave rm-n-diag,53000.0
498,400852,680,S,4,37.835476,-122.010223,ML,4,Oppo El Pintado Wy on-n-diag,17988.0
499,400853,880,S,4,37.5997,-122.061725,ML,4,Alvarado-Niles Rd rm-s-loop,81204.0
500,400858,101,N,4,37.281279,-121.807832,ML,4,Hellyer Ave. rm-n-loop,
501,400859,101,N,4,37.463019,-122.145022,ML,4,University Ave  rm-n-coll/diag,20970.0
502,400861,92,E,4,37.550944,-122.310834,ML,2,El Camino Real rm-e-diag,68252.0
503,400863,101,N,4,37.371809,-121.91655,ML,4,N 1st St rm-n-loop,68000.0
504,400865,80,E,4,37.99336,-122.301718,ML,4,Appian Way rm-e-loop,57288.0
505,400867,580,W,4,37.919482,-122.331673,ML,3,REGATTA BLVD  ON-W-,60620.0
506,400868,101,N,4,37.7536,-122.402898,ML,4,25th St POC,67000.0
507,400869,85,S,4,37.403673,-122.069953,ML,3,Moffett Blvd rm-s-loop,49670.0
508,400870,680,N,4,37.460605,-121.900727,ML,3,SB Dixon Rd,47766.0
509,400873,237,E,4,37.420927,-121.93674,ML,3,ZANKER RD,68000.0
510,400878,24,W,4,37.895657,-122.111891,ML,5,200' W of EBmud Aqueduct UC,39122.0
511,400880,680,N,4,37.751602,-121.959813,ML,4,2500' S of Bollinger Canyon Rd,68378.0
512,400883,680,S,4,37.92161,-122.061947,ML,7,Between Treat & Main St,83346.0
513,400884,101,S,4,37.552362,-122.2953,ML,5,Fashion Island Blvd rm-s-diag,68252.0
514,400886,101,S,4,37.639558,-122.405568,ML,5,WB 380 conn-s-diag,73262.0
515,400891,101,S,4,37.29855,-121.812553,ML,5,Capitol Expwy rm-s-coll,68000.0
516,400892,580,E,4,37.701571,-121.907167,ML,6,HOPYARD RD,57792.0
517,400894,85,S,4,37.242723,-121.804466,ML,3,COTTLE RD,68000.0
518,400895,101,S,4,37.380958,-121.960741,ML,5,San Tomas Expwy rm-s-diag,68000.0
519,400898,880,N,4,37.661989,-122.104729,ML,5,2000' N of Winton Ave,33000.0
520,400902,80,E,4,37.993583,-122.300078,ML,4,Appian Way rm-e-diag,57288.0
521,400904,101,S,4,37.395067,-122.010518,ML,4,Fair Oaks Ave rm-s-diag,77000.0
522,400905,92,W,4,37.550785,-122.311328,ML,2,El Camino Real rm-w-loop,68252.0
523,400907,85,S,4,37.257815,-121.96237,ML,3,SB 17 / NB 17 rm-n-coll,44112.0
524,400911,101,N,4,37.372674,-121.922087,ML,4,Brokaw Rd rm-n-diag,68000.0
525,400916,87,N,4,37.320404,-121.89031,ML,3,NB & SB 280  rm-s-conn,68000.0
526,400922,101,S,4,37.363644,-121.899535,ML,5,NB 880 rm-s-diag,68000.0
527,400923,880,N,4,37.813142,-122.302137,ML,4,2000' N of 7th St/Grand Ave,53000.0
528,400928,880,N,4,37.62282,-122.077983,ML,5,oppo 2200' N of Industrial,33000.0
529,400929,80,W,4,37.991876,-122.308285,ML,5,1000' W of Appian Way,57288.0
530,400933,680,N,4,37.86442,-122.036749,ML,4,Livorna Rd on-n-diag,
531,400934,85,S,4,37.254002,-121.949365,ML,3,SB 17/NB 17 rm-s-diag,68000.0
532,400935,101,N,4,37.584184,-122.328291,ML,5,PENINSULA AVE OC,68252.0
533,400939,880,N,4,37.670921,-122.110371,ML,5,1900' N of A St,
534,400941,880,S,4,37.492551,-121.948549,ML,4,Fremont Blvd rm-s-loop,26000.0
535,400942,880,S,4,37.709334,-122.165111,ML,5,Marina Blvd rm-s-diag,68084.0
536,400946,24,E,4,37.89776,-122.086814,ML,5,EL CURTOLA,39122.0
537,400948,580,E,4,37.798217,-122.216962,ML,4,Fruitvale Ave off-e-diag,53000.0
538,400949,880,N,4,37.756731,-122.210399,ML,4,66th Ave/Coliseum Wy,53000.0
539,400950,580,W,4,37.80979,-122.246264,ML,4,oppo Lakeshore Ave on-e-diag,53000.0
540,400951,880,N,4,37.325151,-121.940679,ML,4,Stevens Creek Blvd,
541,400952,85,N,4,37.279234,-122.01035,ML,3,Saratoga Ave  rm-n-diag,70280.0
542,400953,280,N,4,37.327241,-121.88076,ML,4,4TH ST/REED ST,68000.0
543,400955,880,N,4,37.732945,-122.189517,ML,5,98th Ave rm-n-diag,53000.0
544,400956,880,S,4,37.750611,-122.205291,ML,4,66th Ave rm-s-loop/diag,53000.0
545,400958,680,S,4,37.784162,-121.979035,ML,5,2700' N of Crow Canyon Rd,68378.0
546,400961,680,S,4,38.088709,-122.109659,ML,2,LAKE HERMAN RD,
547,400962,101,N,4,38.06368,-122.534971,ML,4,N of Posada Del sol,
548,400963,85,S,4,37.241254,-121.798377,ML,3,COTTLE RD,68000.0
549,400964,101,N,4,37.376685,-121.94075,ML,3,De La Cruz Blvd rm-n-loop,68000.0
550,400965,101,N,4,37.363311,-121.893592,ML,4,Oakland Rd rm-n-diag,68000.0
551,400970,237,E,4,37.409675,-121.996301,ML,3,Lawrence Expwy rm-e-coll/diag,77000.0
552,400971,880,S,4,37.368669,-121.901336,ML,4,Old Bayshore Hwy,68000.0
553,400972,680,N,4,37.813212,-121.993211,ML,4,Sycamore Valley Rd rm-n-diag,17988.0
554,400973,237,E,4,37.417735,-121.972451,ML,3,Great America Pkwy rm-e-diag,69084.0
555,400975,101,N,4,37.611714,-122.394268,ML,5,oppo SFIA,
556,400976,80,E,4,37.986348,-122.314626,ML,4,Richmond Pkwy rm-e-loop,60620.0
557,400977,101,S,4,37.620575,-122.399975,ML,4,SFIA off-s-diag,
558,400978,101,S,4,37.282486,-121.808807,ML,4,Hellyer Ave. rm-s-loop,
559,400980,880,N,4,37.797439,-122.271974,ML,4,Jackson St rm-n-diag,53000.0
560,400981,101,N,4,37.468732,-122.154696,ML,4,Willow Rd rm-n-loop,20970.0
561,400983,880,N,4,37.805759,-122.303642,ML,3,oppo 7th St rm-s-diag,53000.0
562,400986,580,E,4,37.701322,-121.869395,ML,5,Santa Rita Rd. rm-e-diag,57792.0
563,400988,680,N,4,37.784173,-121.978863,ML,5,2700' N of Crow Canyon Rd,68378.0
564,400989,24,W,4,37.867462,-122.200125,ML,4,Gateway Blvd on-w-diag,54232.0
565,400990,880,N,4,37.680566,-122.123107,ML,5,100' S of Paseo Grande,
566,400993,4,W,4,38.016167,-121.992426,ML,4,oppo Willow Pass Rd rm-e-diag,
567,400995,87,S,4,37.313375,-121.886106,ML,5,Lelong St rm-n-diag,68000.0
568,400996,101,N,4,37.350928,-121.862378,ML,4,Alum Rock Ave  rm-n-diag,68000.0
569,401000,101,S,4,37.586941,-122.345424,ML,5,S of Anza Blvd,68252.0
570,401002,24,E,4,37.897613,-122.093745,ML,4,Pleasant Hill Rd on-e-coll,39122.0
571,401003,880,N,4,37.659267,-122.103058,ML,5,Winton Ave rm-n-coll,33000.0
572,401006,580,E,4,37.701529,-121.904795,ML,6,Hopyard Rd rm-e-diag,57792.0
573,401011,880,N,4,37.563362,-122.038123,ML,4,Decoto Rd rm-n-loop,26000.0
574,401012,92,E,4,37.531919,-122.329851,ML,2,W Hillsdale Blvd off-e-diag,68252.0
575,401014,237,W,4,37.420505,-121.9392,ML,3,ZANKER RD,68000.0
576,401015,580,W,4,37.783815,-122.178637,ML,4,Mountain Blvd on-w-fly,53000.0
577,401016,280,N,4,37.644965,-122.448632,ML,4,Westborough Blvd. rm-n-loop,73262.0
578,401017,580,W,4,37.805197,-122.234712,ML,4,500' W of Park Blvd,53000.0
579,401018,280,S,4,37.732647,-122.414119,ML,5,Alemany Blvd,67000.0
580,401038,880,S,4,37.589412,-122.05441,ML,5,Alvarado/Niles Rd & Alvarado B,26000.0
581,401041,80,W,4,37.92469,-122.320506,ML,4, oppo Cutting Blvd rm-e-loop,60620.0
582,401045,80,E,4,37.924801,-122.320238,ML,4,Cutting Blvd rm-e-loop,60620.0
583,401052,80,W,4,37.898689,-122.309697,ML,4,oppo W of Central Ave,60620.0
584,401053,92,E,4,37.553842,-122.29183,ML,2,US 101,68252.0
585,401056,680,S,4,37.904098,-122.069992,ML,3,Oakland/Trinity Ave,83346.0
586,401058,80,E,4,38.007548,-122.276203,ML,4,oppo 3000' W of SR4,33308.0
587,401062,880,N,4,37.58562,-122.051459,ML,4,N of Alameda Flood Control,26000.0
588,401065,92,W,4,37.553869,-122.293168,ML,3,US 101,68252.0
589,401066,80,W,4,37.878125,-122.307431,ML,6,Gilman St off-w-diag,6000.0
590,401068,880,S,4,37.703701,-122.156989,ML,5,oppo S of Marina Blvd,68084.0
591,401070,80,E,4,38.003715,-122.279792,ML,4,1200' E of Pinole Valley Rd,57288.0
592,401072,880,S,4,37.68658,-122.132116,ML,4,SB 238  rm-s-fly,
593,401073,880,S,4,37.585543,-122.051649,ML,4,oppo N Alameda Flood Control,26000.0
594,401079,80,E,4,37.878155,-122.307214,ML,5,Gilman St rm-e-diag,6000.0
595,401081,80,W,4,38.007643,-122.276369,ML,4,3000' W of SR4,33308.0
596,401083,80,W,4,38.010814,-122.273346,ML,4,Sycamore Ave UC,33308.0
597,401084,80,W,4,38.003734,-122.280004,ML,5,1200' E of Pinole Valley Rd,
598,401090,80,E,4,38.013374,-122.270787,ML,5,oppo Sycamore Ave UC,33308.0
599,401095,680,N,4,37.901176,-122.070224,ML,4,Oakland Blvd & Almond Ave,83346.0
600,401097,680,S,4,37.833812,-122.007449,ML,4,1000' S of El Pintado Rd,17988.0
601,401098,680,N,4,37.797357,-121.98592,ML,5,oppo 1800' N of Greenbrook Dr.,68378.0
602,401100,680,S,4,37.998946,-122.075414,ML,6,2200' N of Hwy 4/N of Blum Ave,
603,401102,680,N,4,37.747942,-121.957587,ML,4,oppo 150' N of Montevideo UC,68378.0
604,401103,680,S,4,37.788286,-121.9813,ML,5,1600' S of Greenbrook Dr.,17988.0
605,401104,680,N,4,37.833874,-122.007206,ML,4,1000' S OF EL PINTADO RD  /  S,17988.0
606,401107,680,N,4,37.788293,-121.981119,ML,5,oppo 1600' S of Greenbrook Dr.,68378.0
607,401110,680,S,4,37.901016,-122.070699,ML,4,oppo Oakland Blvd & Almond Ave,83346.0
608,401111,680,S,4,37.906086,-122.069493,ML,5,Ygnacio Valley Rd,83346.0
609,401112,680,N,4,37.832229,-122.004645,ML,4,EL CERRO BLVD  ON-N-DIAG,17988.0
610,401113,680,N,4,37.999266,-122.075542,ML,5,2200' N of Hwy 4/N of Blum Ave,
611,401114,680,S,4,37.797324,-121.986164,ML,5,1800' N of Greenbrook Dr.,17988.0
612,401124,680,S,4,37.829025,-122.000079,ML,4,S OF EL CERRO BLVD,17988.0
613,401126,680,S,4,37.747916,-121.957829,ML,4,150'  N OF MONTEVIDEO UC,68378.0
614,401129,87,N,4,37.265284,-121.858973,ML,4,200' S of Branham Lane,68000.0
615,401134,780,E,4,38.050657,-122.142601,ML,3,E of 5th St,5290.0
616,401137,980,W,4,37.806967,-122.278034,ML,3,14th St OC,53000.0
617,401141,880,S,4,37.802658,-122.286768,ML,3,Market St rm-s-diag,53000.0
618,401142,880,N,4,37.802856,-122.286698,ML,3,oppo Market St rm-s-diag,53000.0
619,401143,880,N,4,37.824713,-122.290947,ML,2,34th & Wood St,53000.0
620,401144,980,E,4,37.80687,-122.277794,ML,3,14th ST OC,53000.0
621,401148,780,W,4,38.050828,-122.142488,ML,2,E of 5th St,5290.0
622,401151,80,E,4,38.251746,-122.067825,ML,5,W Texas St/Beck Rd rm-e-diag,23182.0
623,401152,80,W,4,38.257563,-122.063217,ML,5,Travis Blvd rm-w-diag,23182.0
624,401154,87,S,4,37.265167,-121.858959,ML,3,oppo 200' S of Branham Lane,68000.0
625,401155,80,W,4,38.259133,-122.061907,ML,5,Travis Blvd rm-w-loop,23182.0
626,401156,880,S,4,37.824879,-122.291343,ML,2,oppo 34th & Wood St,53000.0
627,401163,280,S,4,37.316756,-121.923186,ML,5,LEIGH AVE OC,68000.0
628,401167,280,N,4,37.316984,-121.923208,ML,5,Leigh Ave OC,68000.0
629,401190,980,E,4,37.803051,-122.279792,ML,2,7th St,53000.0
630,401195,80,E,4,37.912502,-122.317364,ML,4,CARLSON AVE,60620.0
631,401197,80,W,4,37.969432,-122.320772,ML,4,oppo El Portal Dr rm-e-diag,60620.0
632,401198,80,E,4,37.858492,-122.30137,ML,5,N aquatic park,6000.0
633,401199,101,N,4,37.580362,-122.324109,ML,6,oppo E Poplar ave rm-s-diag,68252.0
634,401208,580,W,4,37.890467,-122.308444,ML,2,580 EB,53000.0
635,401209,80,E,4,37.975449,-122.318616,ML,4,Hilltop Dr rm-e-loop,60620.0
636,401210,85,N,4,37.291198,-122.023391,ML,3,200' N of Blue Hills POC,70280.0
637,401211,80,W,4,37.839668,-122.297004,ML,6,Powell St rm-w-loop,22594.0
638,401213,280,N,4,37.638316,-122.440672,ML,4,Avalon Dr off-n-diag,65028.0
639,401215,80,W,4,37.974619,-122.319044,ML,4,Hilltop Dr rm-w-diag,60620.0
640,401216,80,W,4,38.21022,-122.147452,ML,5,Green Valley Rd rm-w-diag,23182.0
641,401218,580,E,4,37.891533,-122.308848,ML,2,580 EB,53000.0
642,401219,80,W,4,38.201274,-122.158165,ML,4,Red Top rd rm-w-diag,23182.0
643,401221,80,E,4,37.943467,-122.323784,ML,4,Solano Ave rm-w-diag,60620.0
644,401223,92,W,4,37.507295,-122.338218,ML,2,EB 92 to NB 280 loop,
645,401224,85,S,4,37.291054,-122.023638,ML,3,200' N of Blue Hills POC,70280.0
646,401226,80,W,4,38.014164,-122.270259,ML,4,SR4 rm-w-fly/diag,33308.0
647,401228,80,E,4,37.952355,-122.327741,ML,4,600' W of San Pablo Dam Rd,60620.0
648,401229,80,W,4,37.91248,-122.317515,ML,4,oppo Carlson Ave rm-e-diag,60620.0
649,401230,80,W,4,37.996269,-122.287675,ML,4,Pinole Valley Rd rm-w-diag,57288.0
650,401233,101,S,4,37.580255,-122.324301,ML,5,E Poplar ave rm-s-diag,68252.0
651,401234,80,W,4,37.89438,-122.307952,ML,4,Cleveland Ave off-w-diag,674.0
652,401239,80,E,4,37.889597,-122.308245,ML,4,Buchanan St rm-e-diag,674.0
653,401240,880,S,4,37.613899,-122.071851,ML,4,North of Ward Creek,33000.0
654,401242,80,W,4,37.858593,-122.301665,ML,5,N aquatic park,6000.0
655,401243,80,E,4,37.969552,-122.320607,ML,4,El Portal Dr rm-e-diag,60620.0
656,401253,80,W,4,37.943406,-122.323941,ML,4,Solano Ave rm-w-diag,60620.0
657,401256,80,W,4,37.952266,-122.327891,ML,5,oppo 600' W of San Pablo Dam,60620.0
658,401260,80,E,4,37.979209,-122.317341,ML,4,Hilltop Dr rm-e-diag,60620.0
659,401269,80,E,4,37.996735,-122.286591,ML,4,Pinole Valley Rd rm-w-diag,57288.0
660,401273,980,W,4,37.803541,-122.279977,ML,3,7th St,53000.0
661,401274,80,W,4,38.0216,-122.263382,ML,4,Willow Ave rm-w-diag,33308.0
662,401277,101,N,4,37.74302,-122.406392,ML,5,Faith S,67000.0
663,401279,680,N,4,37.767312,-121.970029,ML,5,2000' of Norris Canyon Rd,68378.0
664,401280,680,S,4,37.94137,-122.060054,ML,7,Contra Costa Blvd rm-s-diag,57764.0
665,401282,242,N,4,37.969613,-122.04788,ML,3,oppo Clayton rd rm-s-diag,16000.0
666,401283,680,S,4,37.92803,-122.060616,ML,6,TREAT BLVD / GEARY RD,83346.0
667,401285,101,S,4,37.744018,-122.405853,ML,5,Faith St,67000.0
668,401288,680,S,4,37.767277,-121.970295,ML,5,2000' OF NORRIS CANYON RD,68378.0
669,401289,242,S,4,37.969653,-122.048119,ML,3,Clayton Rd,16000.0
670,401298,92,W,4,37.557273,-122.283726,ML,3,Mariners Island Blvd rm-w-diag,68252.0
671,401305,92,W,4,37.562748,-122.274967,ML,3,Foster City Blvd rm-w-diag,68252.0
672,401314,680,N,4,37.823575,-121.993841,ML,4,Diablo Rd on-n-diag,17988.0
673,401318,80,E,4,38.202928,-122.155877,ML,4,Red Top rd  rm-e-diag,23182.0
674,401327,280,S,4,37.315095,-121.914498,ML,4,400' S OF MERIDIAN AVE,68000.0
675,401328,680,S,4,37.823549,-121.994013,ML,4,Diablo Rd on-n-diag,17988.0
676,401333,880,N,4,37.801768,-122.283102,ML,4,Adeline St rm-s-diag,53000.0
677,401336,101,N,4,37.604536,-122.38319,ML,5,Millbrae Ave on-n-loop/diag,47486.0
678,401339,880,S,4,37.801684,-122.28315,ML,4,Adeline St rm-s-diag,53000.0
679,401343,92,E,4,37.563622,-122.273387,ML,3,Foster City Blvd rm-e-loop,25338.0
680,401344,680,S,4,37.889908,-122.058992,ML,7,1700' N of South Main St.,83346.0
681,401347,680,S,4,37.76122,-121.966344,ML,4,Bollinger Canyon Rd on-s-loop,68378.0
682,401351,237,W,4,37.401701,-122.032879,ML,2,WB 237  TO NB101,77000.0
683,401356,680,S,4,37.729031,-121.944636,ML,4,oppo 2300' N of Alcosta Blvd,20018.0
684,401357,101,S,4,37.723512,-122.401258,ML,5,Paul Ave off-s-loop,67000.0
685,401358,101,N,4,37.72349,-122.40102,ML,5,Paul Ave off-s-loop,67000.0
686,401359,680,N,4,37.729064,-121.944384,ML,4,2300' N of Alcosta Blvd,20018.0
687,401362,880,S,4,37.53065,-122.003967,ML,4,Mowry Ave rm-s-loop,26000.0
688,401366,680,S,4,37.868257,-122.040144,ML,5,oppo 1000' N of Livorna rd,
689,401373,680,N,4,37.868315,-122.039906,ML,4,1000' N of Livorna Rd,
690,401381,24,E,4,37.835333,-122.265611,ML,4,47th and Dover / 51st Stree,53000.0
691,401385,238,S,4,37.690755,-122.130603,ML,4,HESPERIAN BLVD,
692,401388,280,S,4,37.316628,-121.952438,ML,4,BASCOM & LELAND,68000.0
693,401390,24,W,4,37.827408,-122.267734,ML,3,E of MacArthur/Apgar St/MLK,53000.0
694,401391,280,S,4,37.337881,-121.85467,ML,2,US 101 IC (McLaughlin Ave),68000.0
695,401392,238,N,4,37.690807,-122.131038,ML,2,Hesperian Blvd rm-s-loop,
696,401393,242,N,4,37.979004,-122.043205,ML,3,Concord Ave rm-n-loop,16000.0
697,401394,92,W,4,37.560575,-122.278481,ML,4,Vintage Park Dr OC,68252.0
698,401395,80,W,4,38.046031,-122.23699,ML,4,oppo Cummings Skywy rm-e-diag,
699,401399,242,S,4,37.979212,-122.043366,ML,3,Concord Ave rm-s-loop,16000.0
700,401400,280,N,4,37.316841,-121.952427,ML,6,Bascom & Leland,68000.0
701,401401,242,N,4,37.979004,-122.043205,ML,4,Concord Ave rm-n-diag,16000.0
702,401402,92,E,4,37.560418,-122.278316,ML,4,Vintage Park Dr OC,68252.0
703,401403,280,N,4,37.338232,-121.854583,ML,2,US 101 IC (McLaughlin Ave),68000.0
704,401405,101,S,4,37.769586,-122.416414,ML,2,13th / South Van Ness,67000.0
705,401407,680,N,4,37.921844,-122.061541,ML,6,Between Treat & Main St.,83346.0
706,401408,101,S,4,37.75869,-122.405643,ML,4,20TH STREET  - HOSPITAL CURVE,67000.0
707,401409,101,N,4,37.756863,-122.403503,ML,4,Vermont St,67000.0
708,401410,101,S,4,37.75671,-122.403619,ML,4,Vermont St,67000.0
709,401411,101,N,4,37.609492,-122.390874,ML,4,Millbrae Ave rm-n-diag,
710,401412,580,E,4,37.70086,-121.818662,ML,6,Airway Blvd rm-e-loop,41992.0
711,401413,980,E,4,37.814021,-122.271468,ML,5,23rd St,53000.0
712,401416,980,W,4,37.814242,-122.271837,ML,5,23rd St,53000.0
713,401420,680,S,4,37.800514,-121.988319,ML,5,3500' N of Greenbrook Dr.,17988.0
714,401421,680,S,4,38.145352,-122.110074,ML,2,Marshview Rd,
715,401422,680,N,4,37.800538,-121.988095,ML,5,oppo 3500' N of Greenbrook Dr.,68378.0
716,401423,24,W,4,37.893061,-122.12582,ML,4,HAPPY VALLEY RD UC,39122.0
717,401424,680,N,4,38.145138,-122.109703,ML,2,Marshview Rd,
718,401426,92,E,4,37.547452,-122.32065,ML,2,oppo Alameda De Las Pulgas,68252.0
719,401431,92,W,4,37.546647,-122.324375,ML,2,Alameda De Las Pulgas,68252.0
720,401433,580,E,4,37.70139,-121.885271,ML,6,Hacienda Dr. rm-e-diag,57792.0
721,401434,680,N,4,37.724997,-121.941236,ML,4,Alcosta Blvd rm-n-diag,20018.0
722,401437,680,S,4,37.857661,-122.031123,ML,4,2400' South of Livorna Rd,
723,401439,101,S,4,37.541393,-122.285108,ML,4,Hillsdale Blvd rm-s-diag,68252.0
724,401440,880,S,4,37.356826,-121.908804,ML,4,N First St rm-s-diag,68000.0
725,401441,680,N,4,37.777505,-121.9753,ML,4,Crow Canyon rd rm-n-loop,68378.0
726,401443,101,N,4,37.527313,-122.271113,ML,4,Ralston Ave rm-n-diag,5108.0
727,401444,680,N,4,37.857709,-122.030894,ML,4,2400' SOUTH OF LIVORNA RD,
728,401446,101,S,4,37.544196,-122.287712,ML,4,Hillsdale Blvd rm-s-loop,68252.0
729,401447,580,W,4,37.811386,-122.249717,ML,4,Grand Ave off-e-diag,53000.0
730,401448,101,N,4,37.664884,-122.397377,ML,4,Oyster Point Blvd rm-n,73262.0
731,401450,880,S,4,37.61754,-122.074491,ML,4,Industrial Pkwy rm-s-loop,33000.0
732,401451,101,S,4,37.665037,-122.397511,ML,4,Oyster Point Blvd rm-n-diag,73262.0
733,401452,580,E,4,37.811293,-122.249829,ML,4,Grand Ave off-e-diag,53000.0
734,401453,92,E,4,37.524638,-122.332182,ML,2,oppo De Anza Blvd off-w-diag,68252.0
735,401454,101,S,4,37.717182,-122.399154,ML,4,3rd St. off ramp,67000.0
736,401457,87,S,4,37.279515,-121.864784,ML,4,oppo Hillsdale Ave,68000.0
737,401461,680,S,4,37.75851,-121.964605,ML,4,BOLLINGER CANYON RD  ON-S-DIAG,68378.0
738,401462,101,S,4,37.690972,-122.391216,ML,4,Sierra Point Pkwy rm-s-hook,8310.0
739,401464,880,N,4,37.424833,-121.916049,ML,4,EB 237 rm-n-loop,47766.0
740,401467,101,S,4,37.474668,-122.165291,ML,5,oppo Ringwood POC,46870.0
741,401468,680,N,4,37.775076,-121.974082,ML,4,oppo Crow Canyon Rd rm-s-diag,68378.0
742,401469,101,N,4,37.691221,-122.39097,ML,4,Sierra Point Parkway rm-s-diag,8310.0
743,401470,280,S,4,37.731979,-122.427875,ML,4,MISSION ST OC,67000.0
744,401471,948,N,4,37.82401,-122.303164,ML,3,oppo Maritime St on-n-diag,53000.0
745,401472,101,N,4,37.700468,-122.393067,ML,5,Sierra Pt Parkway & Lagoon Wy,8310.0
746,401474,101,N,4,37.47483,-122.165147,ML,5,Ringwood POC,46870.0
747,401475,880,S,4,37.654774,-122.100556,ML,5,Winton Ave rm-s-coll/diag,33000.0
748,401476,4,W,4,38.013608,-121.99884,ML,4,Willow Pass Rd (Concord),16000.0
749,401478,580,W,4,37.822927,-122.261851,ML,6,Webster St / 36th,53000.0
750,401480,80,W,4,37.99346,-122.301971,ML,4,Appian Way rm-w-diag,57288.0
751,401481,580,E,4,37.822748,-122.262051,ML,6,Webster St / 36th,53000.0
752,401482,24,W,4,37.897809,-122.082484,ML,6,oppo Juanita Dr,
753,401483,580,W,4,37.816343,-122.251589,ML,4,Chetwood St & Santa Clara,53000.0
754,401484,680,S,4,37.865141,-122.037802,ML,4,oppo Livorna Rd on-n-diag,
755,401485,4,E,4,38.019047,-121.94895,ML,4,W of Bailey Rd,
756,401486,280,N,4,37.731414,-122.424609,ML,4,Mission St OC,67000.0
757,401487,680,N,4,37.761391,-121.966173,ML,4,Bollinger Canyon Rd rm-n-diag,68378.0
758,401488,680,S,4,38.204941,-122.138165,ML,2,S of Cordelia Rd/Bridgeport Av,23182.0
759,401489,880,N,4,37.427486,-121.916962,ML,4,Calaveras Blvd rm-n-diag,47766.0
760,401496,680,S,4,37.99585,-122.071553,ML,5,EB 4 on-s-diag,
761,401501,101,S,4,37.700511,-122.393392,ML,4,Sierra Pt Parkway & Lagoon Wy,8310.0
762,401503,80,W,4,37.825278,-122.30642,ML,7,I-880S,53000.0
763,401507,101,N,4,37.412677,-122.079539,ML,6,SHORELINE BLVD,49670.0
764,401509,80,E,4,37.904465,-122.313054,ML,4,W of Panama Ave,60620.0
765,401512,280,S,4,37.677847,-122.47162,ML,4,Sullivan Ave rm-s-diag,17918.0
766,401513,80,E,4,37.838814,-122.296557,ML,6,Powell St rm-e-diag,22594.0
767,401515,101,S,4,37.61287,-122.39602,ML,5,SFIA rm-s-fly (upper roadway),
768,401516,101,N,4,37.760031,-122.406233,ML,4,20th Street - Hospital Curve,67000.0
769,401517,880,N,4,37.703862,-122.156797,ML,5,S of Marina Blvd,68084.0
770,401519,680,S,4,37.881497,-122.050948,ML,5,oppo Rudgear rd rm-n-fly,83346.0
771,401522,680,S,4,37.925437,-122.060919,ML,6,Treat Blvd rm-s-diag,83346.0
772,401523,101,S,4,37.651292,-122.406933,ML,4,S Airport Blvd off-s-diag,73262.0
773,401524,80,W,4,37.877407,-122.307241,ML,5,Gilman St rm-w-diag,6000.0
774,401526,4,W,4,38.019378,-121.949271,ML,4,oppo W of Bailey Rd,
775,401529,880,N,4,37.589488,-122.054221,ML,4,Bet Alvarado/Niles & Alvarado,26000.0
776,401531,580,W,4,37.701058,-121.812858,ML,6,E of Airway Blvd,41992.0
777,401534,101,N,4,37.407511,-122.065278,ML,4,MOFFETT BLVD,49670.0
778,401537,242,N,4,37.988174,-122.04039,ML,3,Solano Way rm-n-diag,16000.0
779,401538,880,N,4,37.430587,-121.917925,ML,6,EB 237 rm-n-fly,47766.0
780,401539,80,W,4,37.826038,-122.302202,ML,7,80/880 W,53000.0
781,401541,880,N,4,37.370203,-121.901514,ML,3,Gish Rd rm-n-diag,68000.0
782,401542,680,N,4,37.906311,-122.069159,ML,6,oppo Ygnacio Valley Rd,83346.0
783,401545,880,N,4,37.559198,-122.03362,ML,5,oppo S of Decoto Rd / Rt 84,26000.0
784,401546,80,E,4,37.821573,-122.327415,ML,5,oppo SFOBB MLM station AB,53000.0
785,401547,92,E,4,37.507109,-122.338144,ML,2,EB 92 to NB 280 loop,
786,401548,580,E,4,37.816339,-122.251805,ML,4,Chetwood St & Santa Clara,53000.0
787,401551,80,E,4,37.972158,-122.319728,ML,5,Hilltop Dr off-e-diag,60620.0
788,401555,85,N,4,37.255642,-121.860983,ML,3,Santa Teresa rm-n-diag,68000.0
789,401557,880,S,4,37.559063,-122.033816,ML,4,S of Decoto Rd / Rt 84,26000.0
790,401558,80,E,4,37.91859,-122.317348,ML,4,oppo Potrero Ave rm-w-diag,60620.0
791,401560,880,N,4,37.357526,-121.907884,ML,3,1st St rm-n-loop,68000.0
792,401561,880,N,4,37.614012,-122.071623,ML,5,oppo North of Ward Creek,33000.0
793,401562,948,S,4,37.823922,-122.303329,ML,2,Maritime St on-n-diag,53000.0
794,401564,580,E,4,37.700802,-121.812823,ML,7,E of Airway Blvd,41992.0
795,401566,680,N,4,37.881591,-122.050662,ML,4,Rudgear Rd rm-n-fly,83346.0
796,401567,87,N,4,37.279628,-121.864838,ML,4,Hillsdale Ave,68000.0
797,401568,4,E,4,38.013247,-121.998502,ML,4,oppo Willow Pass Rd (Concord),16000.0
798,401571,80,W,4,37.972099,-122.319898,ML,5,oppo Hilltop Dr off-e-diag,60620.0
799,401575,80,E,4,37.909564,-122.31655,ML,4,oppo Carlson Blvd rm-w-diag,60620.0
800,401578,101,N,4,37.133642,-121.634578,ML,3,Dunne Ave. rm-n-diag,
801,401579,101,S,4,37.140073,-121.640223,ML,3,700' S of East Main Ave,
802,401580,680,S,4,37.71698,-121.935122,ML,6,500' N of Amador Valley Blvd,20018.0
803,401581,101,N,4,37.13061,-121.632802,ML,3,Dunne Ave rm-n-loop,
804,401582,680,N,4,37.710859,-121.929582,ML,5,Dublin Blvd rm-n-loop,20018.0
805,401583,680,N,4,37.484267,-121.913886,ML,4,125' N of DWR u/c,26000.0
806,401586,101,N,4,37.140251,-121.639919,ML,3,700' S OF EAST MAIN AVE,
807,401587,680,N,4,37.713274,-121.931606,ML,5,2500' N of I-580,20018.0
808,401588,680,S,4,37.728651,-121.944342,ML,4,Alcosta Blvd.  rm-s-diag,20018.0
809,401589,101,S,4,37.070428,-121.589598,ML,3,S of Church Ave OC,
810,401590,680,S,4,37.713363,-121.932068,ML,5,oppo 2500' N of I-580,20018.0
811,401592,101,N,4,37.070515,-121.589243,ML,3,oppo S of Church Ave OC,
812,401593,680,N,4,37.72851,-121.943953,ML,4,Alcosta Blvd.  rm-s-diag,20018.0
813,401594,680,N,4,37.716883,-121.934662,ML,4,500' N OF AMADOR VALLEY BLVD,20018.0
814,401595,101,S,4,38.364505,-122.712662,ML,3,Wilfred Ave rm-s-diag,62546.0
815,401596,680,S,4,37.697749,-121.921633,ML,3,Stoneridge Dr rm-s-diag,57792.0
816,401597,87,N,4,37.2874,-121.869623,ML,3,900' S of Carol Dr,68000.0
817,401598,101,N,4,38.385828,-122.716069,ML,3,TODD RD,
818,401599,101,S,4,38.413712,-122.7162,ML,3,Hearn Ave rm-s-diag,
819,401601,101,S,4,38.368371,-122.712467,ML,3,LAGUNA DE SANTA ROSA,62546.0
820,401602,101,N,4,38.421215,-122.715338,ML,3,Baker Ave rm-n-diag,70098.0
821,401603,101,N,4,38.413693,-122.715906,ML,3,Hearn Ave Rm-n-diag,70098.0
822,401604,101,S,4,38.385827,-122.716316,ML,3,Todd Rd rm-s-diag,
823,401605,101,N,4,38.364327,-122.712405,ML,3,Wilfred Ave rm-n-diag,
824,401606,87,S,4,37.287298,-121.869548,ML,3,oppo 900' S of Carol Dr,68000.0
825,401608,680,N,4,37.706032,-121.925529,ML,3,EB 580 conn-n-diag,20018.0
826,401609,101,S,4,38.420521,-122.715784,ML,3,Baker Ave rm-s-diag,70098.0
827,401610,980,W,4,37.810554,-122.275579,ML,4,14th/18th St,53000.0
828,401611,880,S,4,37.318919,-121.940307,ML,3,Stevens Creek Blvd,
829,401613,880,N,4,37.592711,-122.056527,ML,4,oppo 2500' N of Alameda Creek,26000.0
830,401614,880,S,4,37.592635,-122.056711,ML,4,2500' N of Alameda Creek,81204.0
831,401615,980,E,4,37.810407,-122.275345,ML,3,oppo 14th/18th St,53000.0
832,401616,101,N,4,38.069425,-122.538644,ML,5,IGNACIO BLVD,52582.0
833,401621,880,S,4,37.713988,-122.171625,ML,6,oppo Williams St OC,68084.0
834,401624,101,N,4,37.945448,-122.514406,ML,4,Sir Francis Drake Blvd,68364.0
835,401629,880,N,4,37.714115,-122.171416,ML,5,Williams St OC,68084.0
836,401631,101,S,4,37.60296,-122.381221,ML,4,MILLBRAE AVE,9066.0
837,401634,101,S,4,37.601853,-122.379526,ML,5,Millbrae Ave  rm-s-diag,9066.0
838,401636,80,W,4,38.064357,-122.226272,ML,4,Carquinez North Tower West Leg,
839,401637,880,S,4,37.4562,-121.923217,ML,5,Dixon Landing Rd rm-s-loop,47766.0
840,401638,80,W,4,38.067752,-122.226796,ML,4,W of of Carquinez Bridge subst,81666.0
841,401639,880,N,4,37.508312,-121.968475,ML,4,Auto Mall Pkwy rm-n-diag,26000.0
842,401642,880,S,4,37.451227,-121.922218,ML,6,Dixon Landing Rd rm-s-diag,47766.0
843,401643,880,N,4,37.456422,-121.923067,ML,5,Dixon Landing Rd rm-n-coll,47766.0
844,401646,80,W,4,38.058015,-122.225635,ML,4,Carquinez South Tower West Leg,
845,401649,101,S,4,37.483737,-122.182037,ML,4,Marsh Rd rm-s-loop,46870.0
846,401651,101,S,4,37.508175,-122.249762,ML,4,Holly St rm-s-coll,60102.0
847,401652,101,N,4,37.50798,-122.249252,ML,4,oppo Holly St rm-s-coll,60102.0
848,401653,101,N,4,37.483811,-122.181671,ML,4,Marsh Rd rm-n-diag,46870.0
849,401655,280,N,4,37.335596,-121.858919,ML,5,McLaughlin Ave rm-n-loop/diag,68000.0
850,401657,80,E,4,37.825581,-122.302794,ML,4,80 / 580 SPLIT,53000.0
851,401658,101,N,4,37.220762,-121.734732,ML,4,5000' N of Bailey Ave,
852,401660,101,N,4,37.152456,-121.65189,ML,3,Cochrane rd  rm-n-loop,
853,401661,101,S,4,37.200753,-121.708573,ML,4,oppo 2000' N of Coyote Creek,68000.0
854,401662,101,N,4,37.19253,-121.695462,ML,4,Coyote Creek Golf Dr rm-n-diag,
855,401663,101,N,4,37.154637,-121.653989,ML,4,Cochrane Rd rm-n-diag,
856,401665,25,S,4,36.948171,-121.5126,ML,1,200' N of Santa Clara County L,
857,401666,25,S,4,36.950307,-121.521775,ML,1,700' S OF BOLSA RD,
858,401668,101,S,4,37.154503,-121.654348,ML,3,Cochrane Rd  rm-n-diag.,
859,401669,101,S,4,37.220499,-121.734981,ML,4,5000' N of Bailey Ave,
860,401670,101,N,4,37.201089,-121.708235,ML,4,2000' N of Coyote Creek Golf,68000.0
861,401671,80,E,4,37.828559,-122.294113,ML,3,BERKELEY CURVE,53000.0
862,401673,80,W,4,38.044372,-122.239337,ML,4,Cummings Skywy rm-w-diag,
863,401674,25,N,4,36.948171,-121.5126,ML,1,SANTA CLARA COUNTY LINE,
864,401677,25,N,4,36.9526,-121.527113,ML,1,2000' N OF BOLSA RD,
865,401678,25,S,4,36.952601,-121.527114,ML,1,2000' N OF BOLSA RD,
866,401679,25,N,4,36.950307,-121.521774,ML,1,700' S OF BOLSA RD,
867,401680,25,N,4,36.962635,-121.54368,ML,1,2600' S OF 101,
868,401681,24,E,4,37.890212,-122.17369,ML,5,1650' W of St Stephens Dr OC,54232.0
869,401682,25,N,4,36.954824,-121.52944,ML,1,5500' N OF BOLSA RD,
870,401683,24,W,4,37.892591,-122.156901,ML,5,100' E of Acalanes Rd UC,54232.0
871,401684,24,E,4,37.897341,-122.099019,ML,4,Pleasant Hill Rd off-e-coll,39122.0
872,401685,25,S,4,36.962635,-121.54368,ML,1,2600' S OF 101,
873,401686,238,S,4,37.688902,-122.106837,ML,3,Lewelling Blvd rm-s-diag,
874,401687,24,E,4,37.868707,-122.194653,ML,4,Gateway Blvd on-e-diag,54232.0
875,401688,25,S,4,36.954824,-121.52944,ML,1,5500' N OF BOLSA RD,
876,401689,24,W,4,37.888027,-122.177148,ML,5,1450' W of St. Stephens Dr OC,54232.0
877,401691,101,S,4,37.003565,-121.556793,ML,3,E 10th St rm-s-loop,29504.0
878,401692,24,W,4,37.897512,-122.10034,ML,4,Pleasant Hill Rd off-w-coll,39122.0
879,401693,37,W,4,38.137569,-122.256176,ML,2,oppo Sonoma Blvd on-e-loop,81666.0
880,401694,37,E,4,38.140282,-122.253117,ML,3,oppo Sonoma Blvd on-w-loop,81666.0
881,401695,580,E,4,37.701171,-121.921149,ML,4,Hopyard Rd off-e-coll,57792.0
882,401696,37,E,4,38.137096,-122.256692,ML,2,Sonoma Blvd on-e-loop,81666.0
883,401697,680,N,4,37.708575,-121.92765,ML,5,EB 580 rm-n-diag,20018.0
884,401698,80,W,4,37.836566,-122.296138,ML,5,W of Powell St,22594.0
885,401699,37,W,4,38.141954,-122.246347,ML,2,1700' OF MARINE WORLD PKWY,81666.0
886,401700,37,W,4,38.140335,-122.253057,ML,2,Sonoma Blvd on-w-loop,81666.0
887,401701,37,E,4,38.14186,-122.246347,ML,2,oppo 1700' of Marine World,81666.0
888,401702,37,E,4,38.124517,-122.27079,ML,2,oppo Wilson Ave on-w-hook,81666.0
889,401703,37,W,4,38.124634,-122.270656,ML,2,Wilson Ave on-w-hook,81666.0
890,401704,37,W,4,38.121697,-122.277273,ML,2,WILSON AVE,81666.0
891,401705,680,S,4,37.710472,-121.929641,ML,3,Dublin Blvd rm-s-diag,20018.0
892,401706,37,E,4,38.121597,-122.27723,ML,2,WILSON AVE ON-E-DIAG,81666.0
893,401708,880,S,4,37.802025,-122.294706,ML,4,Union Street off-s-diag,53000.0
894,401710,880,S,4,37.779393,-122.238114,ML,4,oppo 23rd Ave rm-n-fly/diag,53000.0
895,401714,880,S,4,37.800363,-122.279928,ML,4,Castro St,53000.0
896,401716,880,S,4,37.607967,-122.067645,ML,4,Whipple Rd  rm-n-coll,33000.0
897,401718,680,N,4,37.993647,-122.068919,ML,5,EB 4 on-n-loop,
898,401720,680,S,4,38.002087,-122.078951,ML,5,Arthur Rd,
899,401722,680,S,4,37.720856,-121.938337,ML,6,3900' S of Alcosta Blvd,20018.0
900,401724,680,N,4,37.849917,-122.028521,ML,4,Oppo Stone Valley Rd ON-S-Diag,17988.0
901,401728,101,S,4,38.349211,-122.71318,ML,3,Rohnert Park Expwy rm-s-loop,62546.0
902,401734,680,S,4,37.947268,-122.057489,ML,6,oppo Monument Blvd  rm-n-diag,57764.0
903,401742,680,N,4,37.963414,-122.054436,ML,4,oppo Willow Pass Rd on-s-diag,16000.0
904,401744,680,S,4,37.84987,-122.028746,ML,4,STONE VALLEY RD  ON-S-DIAG,17988.0
905,401746,24,E,4,37.892433,-122.167031,ML,4,Hidden Valley Rd/St Stephens,54232.0
906,401748,680,S,4,37.967137,-122.057083,ML,4,WILLOW PASS RD ON-S-LOOP,16000.0
907,401750,680,S,4,38.020578,-122.100284,ML,4,oppo N of Service Rd UC,
908,401756,4,W,4,37.995123,-122.068515,ML,3,NB 680 on-w-loop,
909,401758,101,N,4,38.351161,-122.712983,ML,3,Rohnert Park Expwy rm-n-diag,62546.0
910,401762,680,N,4,37.942855,-122.05913,ML,6,Contra Costa Blvd,57764.0
911,401766,101,S,4,38.346176,-122.713111,ML,3,Rohnert Park Expwy rm-s-diag,62546.0
912,401768,680,N,4,38.020646,-122.100069,ML,4,N of Service Rd UC,
913,401770,680,N,4,37.947233,-122.057213,ML,5,Monument Blvd  rm-n-diag,57764.0
914,401774,680,S,4,37.963401,-122.054609,ML,4,Willow Pass Rd on-s-diag,16000.0
915,401778,680,N,4,37.943954,-122.05866,ML,5,Contra Costa Blvd,57764.0
916,401780,680,N,4,38.002078,-122.078721,ML,4,ARTHUR RD,
917,401781,80,E,4,38.218004,-122.135704,ML,5,NB 680 rm-e-diag,23182.0
918,401782,80,W,4,38.220082,-122.133174,ML,5,1200' W of Suisun Valley Rd,23182.0
919,401784,80,E,4,38.223534,-122.127613,ML,6,Suisun Valley Rd on-e-diag,23182.0
920,401785,80,W,4,38.223755,-122.127691,ML,6,Suisun Valley Rd,23182.0
921,401786,80,W,4,38.227238,-122.121552,ML,5,2500' E OF SUISUN VALLEY RD OC,
922,401787,80,E,4,38.227089,-122.121342,ML,5,2500' E of Suisun Valley Rd oc,
923,401788,80,W,4,38.230959,-122.113197,ML,5,E of Cordelia Truck Inspection,
924,401789,80,E,4,38.23082,-122.113024,ML,5,E OF CORDELIA TRUCK INSPECTION,
925,401790,80,W,4,38.234207,-122.105771,ML,5,5000' E of Cordelia Truck Insp,
926,401791,80,E,4,38.233999,-122.105578,ML,5,5000' E OF CORDELIA TRUCK INSP,
927,401793,80,E,4,38.046061,-122.236703,ML,4,Cummings Skywy rm-e-diag,
928,401794,680,S,4,37.875054,-122.045272,ML,5,Rudgear Rd on-s-diag,83346.0
929,401795,101,N,4,37.717176,-122.398947,ML,5,3rd St off-n-diag,67000.0
930,401796,29,N,4,38.321776,-122.309316,ML,2,Trancas St rm-n-diag,50258.0
931,401797,29,S,4,38.321719,-122.309541,ML,2,oppo Trancas St on-n-diag,50258.0
932,401798,29,S,4,38.317605,-122.307867,ML,2,Trancas St,50258.0
933,401799,29,N,4,38.317645,-122.307697,ML,2,oppo Trancas,50258.0
934,401808,280,N,4,37.334883,-121.860066,ML,6,oppo McLaughlin Ave off-s-diag,68000.0
935,401809,280,S,4,37.334524,-121.860098,ML,6,McLaughlin Ave off-s-diag,68000.0
936,401810,280,N,4,37.32592,-121.883989,ML,5,N of 1st St,68000.0
937,401811,280,S,4,37.325651,-121.883953,ML,5,N OF 1ST STREET,68000.0
938,401816,87,S,4,37.37116,-121.926885,ML,2,Guapalupe Parkway,
939,401817,87,N,4,37.371274,-121.926917,ML,4,Guapalupe Parkway,
940,401818,680,S,4,37.892113,-122.063514,ML,6,Newell Ave,83346.0
941,401819,101,N,4,37.77007,-122.419351,ML,3,Valencia St,67000.0
942,401820,101,S,4,37.769613,-122.416876,ML,2,Valencia St,67000.0
943,401825,4,W,4,38.019902,-121.901355,ML,4,W OF Railroad Ave,
944,401826,4,E,4,38.01981,-121.90176,ML,4,W OF RAILROAD AVE,
945,401827,4,W,4,38.017781,-121.892161,ML,4,Railroad Ave rm-w-diag,
946,401828,4,E,4,38.01749,-121.892302,ML,4,oppo Railroad Ave rm-w-diag,
947,401829,4,E,4,38.016161,-121.886863,ML,4,Railroad Ave rm-e-diag,57456.0
948,401830,4,W,4,38.013862,-121.875409,ML,5,Harbor St/Railroad Ave,57456.0
949,401831,101,S,4,37.521616,-122.264949,ML,4,Ralston Ave/Harbor Blvd,5108.0
950,401832,101,N,4,37.515299,-122.25749,ML,4,Holly St rm-n-loop/diag,60102.0
951,401833,101,N,4,37.496527,-122.233527,ML,6,Whipple Ave rm-n-diag,60102.0
952,401834,101,N,4,37.496129,-122.232158,ML,4,Whipple Ave rm-n-loop,60102.0
953,401835,101,N,4,37.491388,-122.218882,ML,4,Seaport Blvd rm-n-diag,60102.0
954,401837,101,S,4,37.490595,-122.217518,ML,4,Woodside Rd/Seaport Blvd,60102.0
955,401840,680,S,4,37.886545,-122.056179,ML,6,S Main St off-s-loop,83346.0
956,401841,238,N,4,37.689198,-122.10708,ML,3,E 14th St rm-n-diag,
957,401845,280,N,4,37.332668,-122.060628,ML,4,SB 280 / NB 85 & NB 280 / SB85,17610.0
958,401846,280,S,4,37.332482,-122.060617,ML,4,SB 280/NB 85 & NB 280/SB85,17610.0
959,401851,580,W,4,37.701673,-121.883255,ML,6,400' W of Tassajara Rd,57792.0
960,401852,580,E,4,37.701391,-121.883264,ML,6,400' W of Tassajara Rd,57792.0
961,401853,580,W,4,37.70123,-122.037919,ML,4,5000' W OF EDEN CANYON RD,
962,401854,580,E,4,37.70096,-122.03778,ML,4,5000' W of Eden Canyon Rd,
963,401855,580,W,4,37.721256,-122.134811,ML,4,2500' E of Estudillo Ave,68084.0
964,401856,580,E,4,37.721144,-122.135,ML,4,2500' E OF ESTUDILLO AVE,68084.0
965,401857,580,W,4,37.763173,-122.149746,ML,4,E OF FONTAIN ST OC,53000.0
966,401858,580,E,4,37.763133,-122.149977,ML,4,E of Fontain St OC,53000.0
967,401859,101,N,4,37.521719,-122.264813,ML,5,oppo Ralston Ave/Harbor Blvd,5108.0
968,401860,101,S,4,37.495989,-122.23223,ML,5,Whipple Ave rm-s-diag,60102.0
969,401861,101,S,4,37.496473,-122.233944,ML,4,Whipple Ave rm-s-loop,60102.0
970,401868,101,S,4,37.514523,-122.256924,ML,4,Holly St off-s-diag,60102.0
971,401869,101,N,4,37.518081,-122.260663,ML,5,N OF HOLLY ST,60102.0
972,401870,101,S,4,37.517958,-122.26082,ML,5,N of Holly St,60102.0
973,401871,880,N,4,37.707384,-122.161886,ML,5,oppo 200' N of Fairway/Aladdin,68084.0
974,401872,101,N,4,37.484232,-122.183031,ML,5,800' N of Marsh Rd.,60102.0
975,401873,101,S,4,37.484087,-122.183239,ML,5,800' N of Marsh Rd.,60102.0
976,401874,101,N,4,37.487321,-122.203433,ML,5,S of Woodside Rd,60102.0
977,401875,101,S,4,37.487195,-122.203699,ML,5,S OF WOODSIDE RD,60102.0
978,401876,101,S,4,37.491361,-122.219254,ML,4,Seaport Blvd off-s-loop/diag,60102.0
979,401877,80,W,4,38.335912,-122.017281,ML,4,E of Pleasant Valley OC,
980,401878,80,E,4,38.335762,-122.017033,ML,4,E of Pleasant Valley OC,
981,401879,80,E,4,38.259621,-122.061166,ML,5,Travis Blvd rm-e-diag,23182.0
982,401880,85,N,4,37.24082,-121.778693,ML,3,SB 101 rm-n-diag,68000.0
983,401881,101,S,4,37.241836,-121.769232,ML,4,Bernal Rd rm-s-diag,
984,401882,101,N,4,37.512823,-122.254705,ML,4,oppo Holly St on-s-coll,60102.0
985,401883,101,S,4,37.512813,-122.254967,ML,4,Holly St  on-s-coll,60102.0
986,401888,880,N,4,37.541569,-122.018846,ML,5,500' N of Central Ave,26000.0
987,401889,680,S,4,37.883723,-122.053331,ML,6,S Main St,83346.0
988,401890,101,N,4,37.343447,-121.855539,ML,5,200' S OF SAN ANTONIO,68000.0
989,401891,101,S,4,37.343293,-121.855795,ML,5,200' S of San Antonio,68000.0
990,401892,80,E,4,37.824658,-122.307909,ML,6,I-880S conn-e-diag,53000.0
991,401894,80,W,4,37.959017,-122.33077,ML,5,800' E of San Pablo Dam Rd,68294.0
992,401895,80,E,4,37.959098,-122.33058,ML,4,800' E of San Pablo Dam Rd,68294.0
993,401896,980,E,4,37.817758,-122.269915,ML,3,28th St/Northgate,53000.0
994,401898,580,W,4,37.824927,-122.270729,ML,3,MLK Jr. Way,53000.0
995,401899,580,E,4,37.824753,-122.270809,ML,3,MLK Jr. Way,53000.0
996,401900,80,W,4,37.88833,-122.30909,ML,6,Buchanan St rm-w-diag,674.0
997,401901,80,E,4,37.884846,-122.30863,ML,5,Buchanan St off-e-diag,6000.0
998,401906,101,S,4,37.335259,-121.848031,ML,4,S of Story Rd. off ramp,68000.0
999,401908,101,N,4,37.335284,-121.847662,ML,4,Story Rd. off-n-diag,68000.0
1000,401910,101,N,4,37.525813,-122.269411,ML,4,Ralston Ave rm-n-loop,5108.0
1001,401911,980,W,4,37.818437,-122.27017,ML,3,29th Street,53000.0
1002,401913,101,S,4,37.482728,-122.179403,ML,4,Marsh Rd rm-s diag,46870.0
1003,401914,101,N,4,37.544766,-122.287979,ML,4,Hillsdale Blvd rm-n-loop,68252.0
1004,401917,680,N,4,37.736265,-121.949884,ML,4,S of Pine Valley Rd,68378.0
1005,401918,680,S,4,37.736222,-121.95013,ML,4,S of Pine Valley Rd,68378.0
1006,401923,80,W,4,38.364998,-121.963981,ML,4,E Monte Vista Ave rm-w-hook,81554.0
1007,401924,680,N,4,37.853385,-122.02894,ML,4,Stone Valley Rd on-n-diag,
1008,401925,680,S,4,37.853324,-122.029154,ML,4,Oppo Stone Valley Rd on-n-diag,
1009,401926,101,S,4,37.40905,-122.071117,ML,4,Shoreline Blvd rm-s-loop,49670.0
1010,401927,101,N,4,37.483144,-122.17985,ML,4,Marsh Rd  rm-n-loop,46870.0
1011,401928,101,S,4,37.504821,-122.246025,ML,5,BRITTAN AVE,60102.0
1012,401929,101,N,4,37.503896,-122.244641,ML,5,Brittan Ave RM-S-Diag,60102.0
1013,401934,101,N,4,37.73437,-122.406177,ML,3,On Bayshore Blvd,67000.0
1014,401935,101,S,4,37.734313,-122.406375,ML,4,On Bayshore Blvd,67000.0
1015,401936,101,S,4,37.407282,-122.06515,ML,4,Moffett Blvd rm-s-diag,49670.0
1016,401937,85,S,4,37.40848,-122.070905,ML,4,Shoreline Blvd rm-s-diag,49670.0
1017,401942,280,N,4,37.322594,-121.897858,ML,6,BIRD AVE,68000.0
1018,401943,280,S,4,37.322361,-121.8978,ML,4,Bird Ave,68000.0
1019,401948,101,N,4,37.409514,-122.071728,ML,5,MOFFETT BLVD,49670.0
1020,401949,101,N,4,37.414582,-122.083368,ML,5,SHORELINE BLVD RM-N-COLL,49670.0
1021,401950,680,S,4,37.777206,-121.975377,ML,4,Crow Canyon Rd rm-s-loop,68378.0
1022,401951,4,W,4,37.992454,-122.076392,ML,2,oppo Pacheco Blvd off-e-diag,46114.0
1023,401952,4,E,4,37.992177,-122.076479,ML,2,Pacheco Blvd off-e-diag,46114.0
1024,401954,4,E,4,38.011247,-121.864952,ML,4,Loveridge Rd rm-e-diag,57456.0
1025,401955,680,N,4,37.771983,-121.972539,ML,5,500' S OF NORRIS CANYON RD,68378.0
1026,401956,680,S,4,37.771955,-121.972763,ML,5,500' S of Norris Canyon Rd,68378.0
1027,401957,87,N,4,37.270311,-121.861079,ML,3,2200' S of Capital Expwy,68000.0
1028,401958,87,S,4,37.270209,-121.860998,ML,3,oppo 2200' S of Capital expwy,68000.0
1029,401994,101,N,4,37.385523,-121.975872,ML,4,GREAT AMERICA PKWY,69084.0
1030,401996,101,N,4,37.396411,-122.015716,ML,4,FAIR OAKS,77000.0
1031,401997,101,N,4,37.398597,-122.025693,ML,4,MATHILDA AVE,77000.0
1032,401998,101,N,4,37.404178,-122.05107,ML,4,Ellis Street rm-n-diag,49670.0
1033,401999,680,S,4,37.832159,-122.004898,ML,4,El Cerro Blvd on-n-diag,17988.0
1034,402000,101,S,4,37.419828,-122.091045,ML,5,Rengstorff Ave rm-s-diag,49670.0
1035,402002,80,E,4,38.169958,-122.198969,ML,4,American Canyon Rd,
1036,402003,80,W,4,38.253226,-122.066886,ML,5,Oliver Rd off-w-diag,23182.0
1037,402004,80,E,4,38.253081,-122.066699,ML,5,oppo Oliver Rd off-w-diag,23182.0
1038,402005,101,S,4,38.2353,-122.619054,ML,2,Lakeview Hwy rm-s-diag,56784.0
1039,402007,580,W,4,37.701136,-121.819792,ML,6,Airway Blvd rm-w-diag,41992.0
1040,402008,101,N,4,36.958075,-121.551297,ML,2,oppo SR 25 on-s-diag,
1041,402010,101,S,4,36.999566,-121.556242,ML,3,1200' S of Route 152,29504.0
1042,402011,101,N,4,36.9996,-121.555853,ML,3,oppo 1200' S of Route 152,29504.0
1043,402012,580,W,4,37.698503,-121.937095,ML,4,Foothill Rd/San Ramon Rd,57792.0
1044,402015,580,E,4,37.698211,-121.934682,ML,4,FOOTHILL RD,57792.0
1045,402016,580,W,4,37.70183,-121.90489,ML,5,Hopyard Rd rm-w-loop,57792.0
1046,402017,580,E,4,37.701638,-121.912277,ML,3,2800' E OF HWY 680,57792.0
1047,402018,580,W,4,37.701847,-121.908181,ML,6,Dougherty Rd rm-w-diag,57792.0
1048,402019,580,W,4,37.701573,-121.871745,ML,5,Santa Rita Rd rm-w-loop,57792.0
1049,402020,580,W,4,37.701578,-121.872112,ML,6,Tassajara Rd rm-w-diag,57792.0
1050,402025,580,W,4,37.702942,-121.755507,ML,6,W of Los Colinas Rd OC,
1051,402026,580,E,4,37.702703,-121.755526,ML,6,W of Los Colinas Rd OC,41992.0
1052,402027,580,W,4,37.700891,-121.774267,ML,4,N Livermore Ave,
1053,402028,580,W,4,37.702801,-121.739963,ML,4,FIRST STREET,41992.0
1054,402029,580,W,4,37.708574,-121.725238,ML,5,Vasco Rd  rm-w-diag,41992.0
1055,402030,580,E,4,37.702925,-121.738302,ML,6,1st St rm-e-diag,41992.0
1056,402031,580,E,4,37.710034,-121.7211,ML,5,Vasco Rd rm-e-diag,41992.0
1057,402032,580,E,4,37.716692,-121.705048,ML,5,Greenville Rd rm-e-diag,41992.0
1058,402033,580,W,4,37.717123,-121.704989,ML,4,Greenville Rd rm-w-diag,41992.0
1059,402038,37,W,4,38.098652,-122.520221,ML,2,oppo Renaissance Rd off-e-diag,52582.0
1060,402039,37,E,4,38.098527,-122.520036,ML,2,Renaissance Rd off-e-diag,52582.0
1061,402040,37,W,4,38.105801,-122.511444,ML,2,oppo Harbor Dr on-e-hook,52582.0
1062,402041,37,E,4,38.105662,-122.511247,ML,2,Harbor Dr on-e-hook,52582.0
1063,402042,37,W,4,38.121611,-122.497174,ML,2,1800' E of The Bridge,52582.0
1064,402043,37,E,4,38.121444,-122.497006,ML,2,oppo 1800' E of the bridge,52582.0
1065,402044,37,W,4,38.15484,-122.422075,ML,1,NOBLE RD,
1066,402045,37,E,4,38.154841,-122.422072,ML,1,NOBLE RD,
1067,402046,37,W,4,38.117602,-122.289241,ML,2,oppo Walnut Ave off-e-diag,81666.0
1068,402047,37,E,4,38.117426,-122.289217,ML,2,Walnut Ave off-e-diag,81666.0
1069,402048,37,W,4,38.141456,-122.232308,ML,2,MARINE WORLD PKWY  OFF-W-DIAG,81666.0
1070,402049,37,E,4,38.141243,-122.232302,ML,2,MARINE WORLD PKWY  OFF-W-DIAG,81666.0
1071,402050,37,W,4,38.140802,-122.221723,ML,3,Columbus to 37 West,81666.0
1072,402051,37,E,4,38.140566,-122.222246,ML,4,oppo Columbus to 37 West,81666.0
1073,402056,87,N,4,37.328954,-121.895643,ML,3,PARK AVE,68000.0
1074,402057,87,S,4,37.336401,-121.897563,ML,4,JULIAN ST,68000.0
1075,402058,87,S,4,37.337137,-121.897741,ML,3,JULIAN ST,68000.0
1076,402059,87,N,4,37.337479,-121.897848,ML,4,JULIAN ST RM-IN-DIAG,68000.0
1077,402060,85,N,4,37.356655,-122.062397,ML,3,N OF FREMONT AVE,
1078,402061,85,S,4,37.356616,-122.06262,ML,3,N OF FREMONT AVE,
1079,402062,80,E,4,37.89875,-122.309494,ML,4,W of Central Ave,60620.0
1080,402067,280,S,4,37.321367,-121.899571,ML,4,oppo Bird Ave off-n-diag,68000.0
1081,402068,4,W,4,38.008612,-121.854384,ML,5,oppo E of Century Blvd,57456.0
1082,402069,4,E,4,38.008461,-121.854505,ML,5,E of Century Blvd,57456.0
1083,402070,160,S,4,38.018347,-121.751494,ML,3,oppo S of Oakley Rd.,
1084,402071,160,N,4,38.018353,-121.75143,ML,3,S of Oakley Rd.,
1085,402072,680,S,4,37.893923,-122.067279,ML,5,Olympic Blvd on-s-loop,83346.0
1086,402077,80,W,4,38.137369,-122.221311,ML,4,EB 37 rm-e-diag,81666.0
1087,402079,80,E,4,38.136531,-122.221583,ML,3,SR 37 conn-e-fly/diag,81666.0
1088,402085,4,W,4,37.990264,-121.75602,ML,3,oppo E of Hwy160 overpass,2252.0
1089,402086,4,E,4,37.990042,-121.756062,ML,3,E of Hwy 160 overpass,2252.0
1090,402087,4,W,4,37.981027,-121.745487,ML,3,1300' W of Laurel Rd,2252.0
1091,402088,4,E,4,37.980677,-121.745776,ML,3,1300' W OF LAUREL RD,2252.0
1092,402089,4,W,4,37.983658,-121.747439,ML,2,Laurel Rd rm-w-diag,2252.0
1093,402090,4,E,4,37.980043,-121.745333,ML,2,Laurel Rd rm-e-loop,2252.0
1094,402091,4,E,4,37.979789,-121.745155,ML,2,Laurel Rd rm-e-diag,2252.0
1095,402092,4,W,4,37.97175,-121.739085,ML,2,oppo Laurel Rd rm-e-diag,53070.0
1096,402093,4,W,4,37.965277,-121.739626,ML,2,W of Lone Tree Way,53070.0
1097,402094,4,E,4,37.964854,-121.740054,ML,2,oppo W of Lone Tree Way,53070.0
1098,402095,4,W,4,37.965265,-121.739634,ML,2,Lone Tree Way rm-w-diag,53070.0
1099,402096,4,E,4,37.964456,-121.740326,ML,2,Lone Tree Way rm-w-diag,53070.0
1100,402098,4,W,4,37.952476,-121.744429,ML,2,Jeffery way rm-w-diag,53070.0
1101,402103,680,S,4,37.724706,-121.94131,ML,4,San Ramon Valley Blvd rm-s-hoo,20018.0
1102,402104,580,W,4,37.793991,-122.20519,ML,4,35th Ave on-w-diag,53000.0
1103,402105,580,E,4,37.793819,-122.2053,ML,4,oppo 35th Ave on-w-diag,53000.0
1104,402106,101,S,4,37.000864,-121.556242,ML,3,300' S of Route 152,29504.0
1105,402117,87,S,4,37.344302,-121.902123,ML,3,Taylor St rm-s-diag,68000.0
1106,402118,87,N,4,37.344411,-121.902181,ML,3,Taylor Street,68000.0
1107,402119,880,S,4,37.421182,-121.915036,ML,4,Calaveras Blvd/EB 237,47766.0
1108,402120,880,S,4,37.399227,-121.908515,ML,4,Montague Expressway,68000.0
1109,402121,880,S,4,37.380274,-121.904061,ML,4,Brokaw Rd rm-s-diag,68000.0
1110,402122,101,S,4,37.467957,-122.153833,ML,5,Willow Rd rm-s-diag,20970.0
1111,402124,101,S,4,38.430806,-122.71547,ML,4,EB 12 rm-s-diag,70098.0
1112,402125,101,N,4,38.432104,-122.715593,ML,3,EB 12/WB 12 rm-s-fly/diag,70098.0
1113,402126,101,S,4,38.431917,-122.715812,ML,3,WB 12 rm-s-loop,70098.0
1114,402127,101,S,4,38.436946,-122.718,ML,3,oppo Third St rm-s-diag,70098.0
1115,402128,101,N,4,38.437017,-122.717757,ML,3,Third St rm-s-diag,70098.0
1116,402129,101,N,4,38.44047,-122.72011,ML,3,6th St rm-n-diag,70098.0
1117,402130,101,S,4,38.440397,-122.72033,ML,4,oppo 6th St rm-n-diag,70098.0
1118,402131,101,S,4,38.444726,-122.723327,ML,3,SB College Ave rm-s-diag,70098.0
1119,402132,101,N,4,38.444794,-122.723133,ML,3,oppo SB College Ave rm-s-diag,70098.0
1120,402133,101,N,4,38.447225,-122.724799,ML,3,NB College Ave rm-n-diag,70098.0
1121,402134,101,S,4,38.447044,-122.724873,ML,3,oppo NB College Ave rm-n-diag,70098.0
1122,402135,101,N,4,38.45231,-122.725972,ML,4,N of College Ave on-n-diag,70098.0
1123,402136,101,S,4,38.452267,-122.726193,ML,4,oppo N of College Ave,70098.0
1124,402137,101,S,4,38.459424,-122.726283,ML,3,Steele Lane rm-s-diag,70098.0
1125,402138,101,N,4,38.459434,-122.7261,ML,3,oppo Steele Lane rm-s-diag,70098.0
1126,402139,101,S,4,37.961812,-122.510124,ML,4,Francisco Blvd West rm-s-diag,68364.0
1127,402140,101,N,4,37.961589,-122.509784,ML,4,WB 580/Bellam Blvd rm-n-diag,68364.0
1128,402141,101,N,4,37.962862,-122.510604,ML,6,SB OFF-RAMP TO FRANCISCO BLVD,68364.0
1129,402142,101,N,4,37.967035,-122.517695,ML,6,ON FRANCISCO BLVD EAST 80FT AF,68364.0
1130,402151,680,N,4,38.041481,-122.120454,ML,5,NEW BENICIA BRIDGE PIER 7,46114.0
1131,402152,680,N,4,38.041481,-122.120454,ML,5,New Benicia Bridge Pier 7,46114.0
1132,402153,680,N,4,38.04334,-122.121891,ML,5,NEW BENICIA BRIDGE PIER 9,
1133,402154,680,N,4,38.04334,-122.121891,ML,5,NEW BENICIA BRIDGE PIER 9,
1134,402155,680,N,4,38.045206,-122.123374,ML,5,NEW BENICIA BRIDGE PIER 11,
1135,402156,680,N,4,38.045206,-122.123374,ML,5,NEW BENICIA BRIDGE PIER 11,
1136,402157,680,N,4,38.047027,-122.124819,ML,5,NEW BENICIA BRIDGE PIER 13,
1137,402158,680,N,4,38.047027,-122.124819,ML,5,New Benicia Bridge Pier 13,
1138,402165,156,W,4,36.961948,-121.383526,ML,1,S of SR-152,
1139,402166,156,E,4,36.961948,-121.383526,ML,1,S of SR-152,
1140,402174,80,E,4,38.089554,-122.23111,ML,3,4A5344 LOC 2,81666.0
1141,402200,24,W,4,37.849093,-122.231287,ML,4,SR13  CONN-W-FLY,53000.0
1142,402201,24,W,4,37.846642,-122.247226,ML,4,Patton St on-w-diag,53000.0
1143,402202,24,E,4,37.843252,-122.254814,ML,4,FOREST ST UC,53000.0
1144,402203,4,E,4,38.019932,-121.905976,ML,4,4A5354 LOC 27,
1145,402204,4,W,4,38.01195,-122.009481,ML,4,4A5354 loc 23,16000.0
1146,402205,4,E,4,38.011347,-122.010573,ML,4,4A5354 loc 23,16000.0
1147,402206,4,W,4,38.002575,-122.047364,ML,2,W of Hwy 242,
1148,402207,4,E,4,38.002161,-122.047775,ML,2,W of SR-242,
1149,402208,4,W,4,37.991988,-122.078142,ML,2,4A5354 LOC 17,46114.0
1150,402209,4,W,4,37.990092,-122.139719,ML,3,4A5354 loc 10,
1151,402210,4,E,4,37.989935,-122.139741,ML,2,4A5354 loc 10,
1152,402211,4,W,4,37.99605,-122.144786,ML,2,4A5354 loc 9,
1153,402212,4,E,4,37.995777,-122.144977,ML,2,4A5354 loc 9,
1154,402213,4,W,4,38.001707,-122.150084,ML,2,4A5354 loc 8,
1155,402214,4,E,4,38.001498,-122.150137,ML,2,4A5354 loc 8,
1156,402217,580,W,4,37.717219,-121.704646,ML,4,4A5314 LOC 7,41992.0
1157,402218,580,W,4,37.708641,-121.725076,ML,4,4A5314 LOC 9,41992.0
1158,402221,580,W,4,37.698534,-121.945474,ML,5,4A5314 Loc 30,
1159,402222,580,E,4,37.69819,-121.946552,ML,4,4A5314 LOC 30,57792.0
1160,402223,580,W,4,37.702224,-122.032695,ML,4,4A5314 Loc 42,
1161,402224,580,E,4,37.701845,-122.033225,ML,4,4A5314 Loc 42,
1162,402225,580,W,4,37.697587,-122.043025,ML,4,4A5314 Loc 45,
1163,402226,580,E,4,37.698004,-122.042005,ML,4,4A5314 LOC 45,
1164,402227,580,W,4,37.692408,-122.064219,ML,4,4A5314 LOC 46,
1165,402228,580,W,4,37.690953,-122.074169,ML,5,4A5314 LOC 47,
1166,402234,80,W,4,38.163669,-122.208464,ML,4,4A5344 loc 10,
1167,402235,80,E,4,38.16352,-122.208162,ML,4,4A5344 loc 10,
1168,402238,80,W,4,38.150809,-122.216813,ML,4,4A5344 loc 8,81666.0
1169,402239,80,E,4,38.150739,-122.216538,ML,5,4A5344 loc 8,81666.0
1170,402240,80,W,4,38.402318,-121.915787,ML,3,4A5344 loc 49,81554.0
1171,402241,80,E,4,38.402199,-121.915666,ML,3,4A5344 loc 49,81554.0
1172,402242,80,W,4,38.410093,-121.905606,ML,3,4A5344 loc 50,81554.0
1173,402243,80,E,4,38.409972,-121.905441,ML,3,4A5344 loc 50,81554.0
1174,402244,80,W,4,38.416347,-121.897404,ML,3,4A5344 loc 51,81554.0
1175,402245,80,E,4,38.416238,-121.897211,ML,3,4A5344 loc 51,81554.0
1176,402246,80,E,4,38.42011,-121.892123,ML,3,4A5344 LOC 52,
1177,402247,80,W,4,38.430261,-121.879137,ML,3,4A5344 loc 54,
1178,402248,80,E,4,38.430209,-121.878856,ML,3,4A5344 loc 54,
1179,402249,80,W,4,38.44034,-121.865893,ML,3,4A5344 loc 55,
1180,402250,80,E,4,38.440289,-121.865617,ML,3,4A5344 loc 55,
1181,402251,80,E,4,38.444361,-121.860391,ML,3,4A5344 LOC 56,
1182,402252,80,W,4,38.446157,-121.858439,ML,3,4A5344 loc 57,
1183,402253,80,W,4,38.450532,-121.852801,ML,3,4A5344 LOC 58,
1184,402254,80,W,4,38.455628,-121.846255,ML,3,4A5344 loc 59,
1185,402255,80,E,4,38.455556,-121.846011,ML,3,4A5344 loc 59,
1186,402256,80,W,4,38.460724,-121.83971,ML,3,4A5344 loc 61,
1187,402257,80,E,4,38.460952,-121.839086,ML,3,4A5344 loc 61,
1188,402258,80,W,4,38.465814,-121.833155,ML,3,4A5344 loc 63,
1189,402259,80,E,4,38.465727,-121.83293,ML,3,4A5344 loc 63,
1190,402260,80,W,4,38.473363,-121.823474,ML,3,4A5344 loc 66,
1191,402261,80,E,4,38.47285,-121.823777,ML,3,4A5344 loc 66,
1192,402262,80,W,4,38.481149,-121.813543,ML,3,4A5344 loc 67,
1193,402263,80,E,4,38.481036,-121.813375,ML,3,4A5344 loc 67,
1194,402264,80,E,4,38.487178,-121.805573,ML,3,4A5344 LOC 68,
1195,402265,80,W,4,38.489167,-121.803384,ML,3,4A5344 LOC 69,
1196,402266,80,E,4,38.491377,-121.800506,ML,3,4A5344 LOC 70,
1197,402267,80,W,4,38.49707,-121.79472,ML,3,4A5344 loc 72,
1198,402268,80,E,4,38.49691,-121.79457,ML,3,4A5344 loc 72,
1199,402269,80,W,4,38.507719,-121.78334,ML,4,4A5344 loc 73,
1200,402270,80,E,4,38.506841,-121.783839,ML,4,4A5344 loc 73,
1201,402281,880,N,4,37.38449,-121.904845,ML,4,4A5324 loc 91,68000.0
1202,402282,880,S,4,37.384485,-121.905044,ML,4,4A5324 loc 91,68000.0
1203,402283,880,N,4,37.391595,-121.906506,ML,4,4A5324 loc 92,68000.0
1204,402284,880,S,4,37.391557,-121.90671,ML,4,4A5324 loc 92,68000.0
1205,402285,880,N,4,37.398698,-121.908172,ML,4,4A5324 loc 93,68000.0
1206,402286,880,N,4,37.405824,-121.909842,ML,5,4A5324 loc 94,68000.0
1207,402287,880,S,4,37.405777,-121.910072,ML,5,4A5324 loc 94,47766.0
1208,402290,880,N,4,37.436753,-121.919191,ML,7,4A5324 loc 96,47766.0
1209,402291,880,S,4,37.438079,-121.919899,ML,6,4A5324 loc 96,47766.0
1210,402292,880,N,4,37.445371,-121.920853,ML,6,4A5324 loc 98,47766.0
1211,402293,880,S,4,37.44531,-121.921119,ML,6,4A5324 loc 98,47766.0
1212,402294,101,N,4,36.92555,-121.547028,ML,2,4A5324 Loc 1,
1213,402295,101,S,4,36.925548,-121.547247,ML,2,4A5324 Loc 1,
1214,402296,101,N,4,36.938711,-121.552481,ML,2,4A5324 Loc 2,
1215,402297,101,S,4,36.938772,-121.552731,ML,2,4A5324 Loc 2,
1216,402298,101,N,4,36.952216,-121.552213,ML,2,4A5324 Loc 3,
1217,402299,101,S,4,36.952235,-121.552455,ML,2,4A5324 Loc 3,
1218,402300,101,N,4,36.965869,-121.552149,ML,2,4A5324 Loc 4,
1219,402301,101,S,4,36.96584,-121.552382,ML,2,4A5324 Loc 4,
1220,402302,101,N,4,36.980439,-121.55735,ML,2,4A5324 Loc 5,
1221,402303,101,S,4,36.980409,-121.557644,ML,2,4A5324 Loc 5,
1222,402314,101,N,4,37.044741,-121.578022,ML,3,4A5324 LOC 17,
1223,402321,101,N,4,37.081974,-121.595454,ML,3,4A5324 loc 25A not 24,
1224,402322,101,S,4,37.081336,-121.595505,ML,3,4A5324 loc 25A not 24,
1225,402327,101,N,4,37.103108,-121.60944,ML,3,4A5324 LOC 30,
1226,402328,101,N,4,37.112261,-121.621044,ML,3,4A5324 loc 31,
1227,402329,101,S,4,37.112135,-121.621406,ML,3,4A5324 loc 31,
1228,402337,101,N,4,37.163058,-121.663633,ML,4,4A5324 loc 40,
1229,402338,101,S,4,37.163384,-121.664417,ML,4,4A5324 loc 40,
1230,402339,101,N,4,37.168787,-121.668555,ML,4,4A5324 loc 42,68000.0
1231,402340,101,S,4,37.171546,-121.671905,ML,4,4A5324 loc 42,68000.0
1232,402341,101,N,4,37.180554,-121.681139,ML,4,4A5324 loc 44,68000.0
1233,402342,101,S,4,37.1802,-121.681522,ML,4,4A5324 loc 44,68000.0
1234,402343,101,N,4,37.196849,-121.701575,ML,4,4A5324 loc 47,68000.0
1235,402344,101,S,4,37.195584,-121.700525,ML,4,4A5324 loc 47,68000.0
1236,402345,101,N,4,37.215727,-121.728741,ML,4,4A5324 loc 48,
1237,402346,101,S,4,37.215461,-121.729,ML,4,4A5324 loc 48,
1238,402347,101,N,4,37.239343,-121.764097,ML,4,4A5324 loc 50,
1239,402348,101,S,4,37.239708,-121.765563,ML,4,4A5324 loc 50,
1240,402349,101,S,4,37.246208,-121.776913,ML,4,4A5324 LOC 52,68000.0
1241,402350,101,N,4,37.248955,-121.781141,ML,4,4A5324 LOC 53,68000.0
1242,402351,101,S,4,37.248679,-121.78139,ML,4,4A5324 LOC 54,68000.0
1243,402352,101,S,4,37.266834,-121.802011,ML,4,4A5324 LOC 55,
1244,402353,101,N,4,37.2712,-121.803139,ML,4,4A5324 LOC 56,
1245,402355,101,N,4,37.299781,-121.813351,ML,4,4A5324 LOC 58,68000.0
1246,402356,101,N,4,37.307829,-121.821116,ML,5,oppo 4A5324 loc 60,68000.0
1247,402357,101,S,4,37.308845,-121.822499,ML,6,4A5324 loc 60,68000.0
1248,402358,101,N,4,37.314719,-121.827787,ML,5,4A5324 Loc 61,68000.0
1249,402359,101,N,4,37.329728,-121.842102,ML,4,4A5324 loc 62,68000.0
1250,402360,101,S,4,37.329591,-121.842361,ML,5,4A5324 loc 62,68000.0
1251,402361,101,N,4,37.336549,-121.848881,ML,4,4A5324 LOC 64,68000.0
1252,402362,101,N,4,37.358996,-121.871981,ML,4,4A5324 loc 65,68000.0
1253,402363,101,S,4,37.3588,-121.872094,ML,4,4A5324 loc 65,68000.0
1254,402364,101,N,4,37.368104,-121.90788,ML,4,4A5324 loc 66,68000.0
1255,402365,101,S,4,37.367859,-121.907971,ML,5,4A5324 loc 66,68000.0
1256,402366,101,N,4,37.388542,-121.986478,ML,4,4A5324 loc 68,69084.0
1257,402367,101,S,4,37.388372,-121.986538,ML,4,4A5324 loc 68,69084.0
1258,402370,101,N,4,37.39592,-122.013438,ML,4,4A5324 LOC 70,77000.0
1259,402371,101,S,4,37.396611,-122.017518,ML,4,4A5324 LOC 71,77000.0
1260,402372,101,N,4,37.40547,-122.055924,ML,4,4A5324 loc 72,49670.0
1261,402373,101,S,4,37.405335,-122.056343,ML,4,4A5324 loc 72,49670.0
1262,402376,101,N,4,37.435945,-122.109246,ML,4,4A5324 LOC 75,55282.0
1263,402377,101,N,4,37.440393,-122.113925,ML,4,4A5324 loc 76,55282.0
1264,402378,101,S,4,37.440293,-122.114141,ML,4,4A5324 loc 76,55282.0
1265,402379,101,N,4,37.445961,-122.11976,ML,4,4A5324 LOC 77,55282.0
1266,402380,101,N,4,37.451442,-122.125642,ML,4,4A5324 loc 78,55282.0
1267,402381,101,S,4,37.451289,-122.125797,ML,4,4A5324 loc 78,55282.0
1268,402382,101,S,4,37.526779,-122.27078,ML,4,4A5324 LOC 80,5108.0
1269,402383,101,N,4,37.535878,-122.279744,ML,5,4A5324 loc 81,68252.0
1270,402384,101,S,4,37.535766,-122.279937,ML,4,4A5324 loc 81,68252.0
1271,402385,101,N,4,37.55476,-122.29726,ML,6,4A5324 loc 83,68252.0
1272,402386,101,S,4,37.554651,-122.297487,ML,4,4A5324 loc 83,68252.0
1273,402387,101,N,4,37.561476,-122.303632,ML,5,4A5324 loc 84,68252.0
1274,402388,101,S,4,37.561364,-122.303829,ML,4,4A5324 loc 84,68252.0
1275,402389,101,N,4,37.565888,-122.308379,ML,5,4A5324 loc 85,68252.0
1276,402390,101,N,4,37.662818,-122.400418,ML,4,4A5324 LOC 86,73262.0
1277,402391,101,N,4,37.666938,-122.395366,ML,4,4A5324 loc 87,73262.0
1278,402392,101,S,4,37.666959,-122.395578,ML,4,4A5324 loc 87,73262.0
1279,402398,101,N,4,37.46959,-122.156168,ML,4,Willow Rd rm-n-diag,20970.0
1280,402399,580,W,4,37.700224,-121.780045,ML,6,oppo West of Portola Ave OC,
1281,402400,580,E,4,37.699984,-121.780016,ML,7,West of Portola Ave OC,
1282,402401,580,W,4,37.70248,-121.764596,ML,6,oppo N Livermore Ave,
1283,402402,580,E,4,37.702234,-121.764593,ML,7,2500' E of N Livermore Ave,
1284,402403,580,W,4,37.702595,-121.747543,ML,6,1600' W of First St,
1285,402404,580,E,4,37.70238,-121.747506,ML,7,1600' W of First St,41992.0
1286,402405,580,W,4,37.704313,-121.735236,ML,6,1900' E of First St,41992.0
1287,402406,580,E,4,37.704105,-121.735155,ML,7,1900' E of First St,41992.0
1288,402407,580,W,4,37.713589,-121.713345,ML,4,3200' E OF VASCO RD,41992.0
1289,402408,580,E,4,37.713351,-121.713265,ML,5,3200' E of Vasco Rd,41992.0
1290,402409,580,W,4,37.718904,-121.69682,ML,4,E OF GREENVILLE RD,
1291,402410,580,E,4,37.718518,-121.696655,ML,5,E of Greenville Rd,
1292,402411,680,N,4,38.024635,-122.109562,ML,4,Waterfront rm-n-loop,
1293,402412,680,S,4,38.027717,-122.116138,ML,4,1400' N of Marina Vista Ave,46114.0
1294,402413,680,S,4,38.043006,-122.124812,ML,2,WB 780,
1295,402416,580,W,4,37.701361,-121.84861,ML,5,Fallon Rd rm-w-loop,
1296,402417,580,E,4,37.701135,-121.849868,ML,6,El Charro Rd rm-e-loop,
1297,402418,580,E,4,37.701099,-121.846036,ML,6,El Charro Rd rm-e-diag,
1298,402419,580,W,4,37.718428,-121.669385,ML,4,4A5314 LOC 1,
1299,402420,580,E,4,37.718211,-121.669346,ML,4,4A5314 Loc 1,
1300,402421,580,W,4,37.721487,-121.676275,ML,4,4A5314 LOC 2,
1301,402423,580,W,4,37.72094,-121.686875,ML,4,4A5314 LOC 4,
1302,402424,580,E,4,37.720431,-121.687475,ML,4,4A5314 Loc 4,
1303,402425,580,W,4,37.718757,-121.697517,ML,4,4A5314 LOC 6,
1304,402426,580,W,4,37.712635,-121.715594,ML,5,4A5314 LOC 8,41992.0
1305,402429,580,W,4,37.702595,-121.741391,ML,4,4A5314 LOC 12,41992.0
1306,402430,580,E,4,37.702324,-121.746413,ML,4,W of First St/Springtown Blvd,41992.0
1307,402433,580,W,4,37.699656,-121.787125,ML,4,1/4m W of N Livermore Ave,41992.0
1308,402434,580,E,4,37.69966,-121.783826,ML,4,4A5314 Loc 17,
1309,402435,580,E,4,37.700063,-121.791737,ML,7,W of Portola Ave,
1310,402438,580,W,4,37.701248,-121.836572,ML,4,4A5314 Loc 20,
1311,402439,580,E,4,37.700891,-121.823407,ML,4,4A5314 LOC 20,41992.0
1312,402442,580,E,4,37.70137,-121.892753,ML,7,4A5314 LOC 25,57792.0
1313,402443,580,W,4,37.701773,-121.895981,ML,6,W of Hacienda Dr.,57792.0
1314,402444,580,W,4,37.701951,-121.915924,ML,5,4A5314 LOC 27,57792.0
1315,402445,580,W,4,37.698731,-121.93366,ML,4,4A5314 LOC 28,57792.0
1316,402446,580,E,4,37.69817,-121.954965,ML,4,4A5314 LOC 31,
1317,402447,580,W,4,37.697754,-121.963582,ML,5,4A5314 LOC 32,
1318,402448,580,E,4,37.696995,-121.968736,ML,4,4A5314 LOC 33,
1319,402449,580,W,4,37.698845,-121.979793,ML,4,4A5314 LOC 34,
1320,402450,580,E,4,37.699898,-121.988806,ML,4,4A5314 LOC 35,
1321,402451,580,W,4,37.701593,-121.992068,ML,4,4A5314 LOC 36,
1322,402452,580,E,4,37.703279,-122.000677,ML,4,4A5314 LOC 37,
1323,402453,580,W,4,37.703462,-122.008093,ML,4,4A5314 LOC 38,
1324,402454,580,E,4,37.702987,-122.009775,ML,4,4A5314 Loc 38,
1325,402455,580,E,4,37.701568,-122.019856,ML,4,4A5314 LOC 40,
1326,402456,580,W,4,37.70111,-122.022997,ML,4,4A5314 LOC 41,
1327,402457,580,E,4,37.690589,-122.074877,ML,5,4A5314 LOC 48,
1328,402464,780,E,4,38.050082,-122.139317,ML,3,780 EB to 680 NB&SB Fly Over,5290.0
1329,402465,680,S,4,38.041896,-122.123918,ML,4,OLD BENICIA BRIDGE PIER 5,
1330,402466,680,S,4,38.040435,-122.122735,ML,4,Old Benicia Bridge Pier 8,46114.0
1331,402476,24,E,4,37.891579,-122.13026,ML,4,4A5354 LOC 51,39122.0
1332,402479,24,E,4,37.849522,-122.241018,ML,4,BROADWAY,53000.0
1333,402480,24,W,4,37.842559,-122.25791,ML,4,TELEGRAPH AVE,53000.0
1334,402481,24,W,4,37.849812,-122.237592,ML,4,BROADWAY,53000.0
1335,402482,4,E,4,37.990233,-121.757519,ML,2,4A5354 LOC 42,2252.0
1336,402483,4,W,4,37.990747,-121.759823,ML,1,4A5354 LOC 41,2252.0
1337,402488,4,W,4,37.996143,-121.784344,ML,2,Hillcrest Ave,2252.0
1338,402489,4,E,4,37.995933,-121.784378,ML,2,Hillcrest Ave,2252.0
1339,402490,4,W,4,37.998257,-121.808341,ML,2,4A5354 loc 36,2252.0
1340,402491,4,E,4,37.998041,-121.805433,ML,2,4A5354 loc 36,2252.0
1341,402501,4,W,4,38.015328,-121.88184,ML,4,W of Loveridge Rd,57456.0
1342,402502,4,E,4,38.014413,-121.879651,ML,3,W of Loveridge Rd,57456.0
1343,402503,4,E,4,38.019991,-121.917022,ML,4,4A5354 LOC 26,
1344,402504,4,W,4,38.021948,-121.959789,ML,4,4A5354 LOC 25,
1345,402505,4,W,4,38.011266,-122.172198,ML,2,4A5354 LOC 6A,
1346,402507,4,W,4,37.990725,-122.094956,ML,3,4A5354 LOC 16,46114.0
1347,402509,4,W,4,37.994441,-122.106976,ML,3,W of Morello Ave,46114.0
1348,402510,4,E,4,37.99419,-122.10704,ML,3,W of Morello Ave,46114.0
1349,402511,4,W,4,37.996593,-122.11338,ML,3,1200' E of Pine St,46114.0
1350,402512,4,E,4,37.996353,-122.113433,ML,3,1200' E of Pine St,46114.0
1351,402513,4,E,4,37.995545,-122.119103,ML,3,4A5354 LOC 12,46114.0
1352,402514,4,W,4,37.993945,-122.122364,ML,3,4A5354 LOC 11,46114.0
1353,402515,4,W,4,38.007109,-122.166569,ML,2,4A5354 loc 7,
1354,402516,4,E,4,38.006871,-122.166606,ML,2,4A5354 loc 7,
1355,402517,4,W,4,38.015575,-122.179034,ML,2,4A5354 loc 6,
1356,402518,4,E,4,38.015347,-122.179054,ML,2,4A5354 loc 6,
1357,402521,4,W,4,38.010999,-122.201565,ML,2,4A5354 LOC 3,
1358,402522,4,W,4,38.008562,-122.220678,ML,2,4A5354 LOC 2,
1359,402528,780,W,4,38.051007,-122.133434,ML,3,SB 680 to WB 780 connector,5290.0
1360,402532,238,N,4,37.689868,-122.120854,ML,2,1100' W OF ASHLAND AVE,
1361,402533,238,S,4,37.689774,-122.12086,ML,3,1100' W of Ashland Ave,
1362,402537,580,E,4,37.690236,-122.091948,ML,3,Foothill Blvd rm-e-diag,
1363,402538,580,W,4,37.690839,-122.08497,ML,5,oppo Strobridge Ave on-e-diag,
1364,402539,580,E,4,37.690526,-122.084955,ML,5,Strobridge Ave on-e-diag,
1365,402540,680,N,4,38.031982,-122.11675,ML,5,NEW BENICIA BRIDGE PIER 5,46114.0
1366,402541,680,N,4,38.031982,-122.11675,ML,5,New Benicia Bridge Pier 5,46114.0
